,Rating,Latitude,Longitude,Name,Website,Vicinity,Address,Food Tags,Place tags,X_coord,Y_coord,X,Y,Rating_scaled
0,8.4,28.6871503,76.9650556,Red Chilli Chinese Food,0,"PVC Markat Road, Tikri Kalan, Delhi","PVC Markat Rd, Tikri Kalan, Delhi, 110041, India",0,0,1.4433911890899906,17.310904800657468,0.02682519515464214,0.3744543968125121,0.5789473684210524
1,7.4,28.6785654,76.9745406,Abdul Kadir,1,"Rohtak Road, Tikri Kalan, Delhi","Rohtak Rd, Tikri Kalan, Delhi, 110072, India",0,0,2.7652696022559122,17.16669454325287,0.04963486142116388,0.3713018054229348,0.3157894736842106
2,8.2,28.6882564,76.9505351,Veer Ji Restaurant & Banquet,0,"MIE Part-B, Bahadurgarh","MIE Part-B, Bahadurgarh, Haryana 124507, India",0,0,0.27350533580150416,16.50155190783367,0.0066382357356400135,0.35676107175389904,0.5263157894736838
3,8.0,28.7016117,76.9764417,Babas' Snack bar,0,"Unnamed Road,, Delhi","Unnamed Road,, Delhi, 110081, India",1,0,1.273346281176079,19.257526270801364,0.02389098610696712,0.4170096366129949,0.4736842105263157
4,7.2,28.7380931,77.0070774,Bikaner Sweets,1,"kanjhawla chowk, Delhi","kanjhawla chowk, Chandpur Village, Delhi, 110081, India",0,0,0.9881347981955452,24.28684512990027,0.01896952080624801,0.5269559581575854,0.26315789473684204
5,8.0,28.73325,77.0249937,Food On Wheelz,1,"near heera sweet, Kanjhawala Road, Budh Vihar Phase I, Rohini","near heera sweet, Kanjhawala Rd, Budh Vihar Phase I, Rohini, Delhi, 110086, India",0,0,2.678115577129955,24.987392590083548,0.0481309755818105,0.5422706793897082,0.4736842105263157
6,7.0,28.7364033,77.025128,Anjali snacks corner,0,"Rupali Enclave, Karala, Delhi","Rupali Enclave, Karala, Delhi, 110081, India",1,0,2.4645500505089566,25.265607288047033,0.04444579671835365,0.5483527520316891,0.21052631578947367
7,9.0,28.7325794,77.0345057,Dipper Restaurant,0,"Karala Village, Karala, Delhi","Karala Village, Karala, Delhi, 110081, India",0,0,3.440494133964332,25.52201079168127,0.06128619490980922,0.5539580084979256,0.7368421052631577
8,9.6,28.7314948,77.0365726999999,Shree Radhey Radhey family restaurant,0,"Kanjhawala Road, Karala Village, Karala","Kanjhawala Rd, Karala Village, Karala, Delhi, 110081, India",0,0,3.6727513256060216,25.557845978059362,0.06529390770440613,0.5547414042289416,0.894736842105263
9,7.4,28.7538544,77.0528051,Anytime Snacks,0,"H-206/3A, Shop, No. 7, Opposite Gurudwara, New Seelampur, Delhi","H-206/3A, Shop, No. 7, Opposite Gurudwara, New Seelampur, Sultanpur Dabas, Delhi, 110053, India",1,0,3.306668725605552,28.481391911245815,0.05897697125335058,0.618653263911286,0.3157894736842106
10,8.6,28.7494716,77.0565333,Al Karim's Food,0,"D mall, Rohini, New Delhi","D mall, Sector 37, Rohini, New Delhi, Delhi 110039, India",0,0,3.8976675500683875,28.33835730536437,0.06917494847700305,0.6155263735289445,0.631578947368421
11,9.4,28.8242954,77.1462492,Panjabi Tadka Restaurant,0,"Hamidpur Village, Delhi","Hamidpur Village, Delhi, 110036, India",0,0,5.332091673878174,40.321673576817695,0.0939266466837898,0.8774945606459947,0.8421052631578949
12,7.8,28.6830469,76.9405007,Huda Gymkhana Club,1,"Sector-9A, Bahadurgarh","Sector-9A, Sector 9, Bahadurgarh, Haryana 124507, India",1,0,-0.11119737829862782,15.430874304683668,0.0,0.3333549073558014,0.4210526315789471
13,8.6,28.6971173,76.9577925,Navin Ki Chaumin,0,"near komal public school, chhotu ram nagar, Bahadurgarh","near komal public school, chhotu ram nagar, Bahadurgarh, Haryana 124507, India",0,0,0.19043482247804494,17.711853880968714,0.005204812913522322,0.38321957510840693,0.631578947368421
14,8.0,28.6901041,76.9940103999999,New Chiness Food,1,"Block A, Tyagi Vihar, Ghevra, Delhi","Block A, Tyagi Vihar, Ghevra, Delhi, 110072, India",0,0,3.410048327835689,19.366400172956165,0.06076083745628494,0.41938973725673706,0.4736842105263157
15,8.8,28.6850352,76.9943459999999,First Choice Veg Restaurant,0,"86/23, Rohtak Road, Mundka Udyog Nagar, Mundka Industrial Area, Mundka, Delhi","86/23, Rohtak Rd, Mundka Udyog Nagar, Mundka Industrial Area, Mundka, Delhi, 110081, India",0,0,3.794832868367917,18.953517671592547,0.06740048514750975,0.410363681536899,0.6842105263157896
16,9.6,28.6955801,76.9974517,First Choice Fast Food,0,"Near Ghevra Stand, Ghevra, Ghevra, Delhi","Near Ghevra Stand, Ghevra, Delhi, 110081, India",0,0,3.2802417285710317,20.04927036282859,0.05852096033980515,0.43431801434004397,0.894736842105263
17,8.2,28.7302289,77.0418717,Lee Chick Bar-Be-Que,0,"Rama Vihar, Karala, Delhi","Rama Vihar, Karala, Delhi, 110081, India",1,0,4.160738153990179,25.779329477894198,0.07371436195120977,0.559583271840021,0.5263157894736838
18,8.6,28.752495,77.0759339999999,Gol Gappe Chaat Bhandar,0,"Main Bhawana Road, Prahladpur Bangar, Delhi","Main Bhawana Road, Prahladpur Bangar, Sector 31, Rohini, Delhi, 110086, India",1,0,5.141023677205517,29.804355179280638,0.09062967383446532,0.6475746643899782,0.631578947368421
19,7.2,28.8237026,77.1482036,Guru Kripa Restaurant,1,"Kh No. 313, College Main Road, Near HMR Institute of Technology and Management, Hamidpur, Delhi","Kh No. 313, College Main Road, Near HMR Institute of Technology and Management, Hamidpur, Delhi, 110036, India",0,0,5.520953900935296,40.39251323918416,0.0971855578866799,0.8790431918851063,0.26315789473684204
20,8.2,28.5578526,76.8677433999999,Chatora Sweets & Restaurant,1,"Main Dhansa Najafgarh road near mcd primaryschool New Delhi 110073, Dhansa village, New Delhi","Main Dhansa Najafgarh road near mcd primaryschool New Delhi 110073, Dhansa village, Dhansa, New Delhi, Delhi 110073, India",0,0,3.3019743233111263,0.18208654366932195,0.05889596701832401,0.0,0.5263157894736838
21,9.6,28.599283,76.915583,Eleven 2 Eleven,0,"Rawta More, Jaffarpur Kalan, Delhi","Rawta More, Jaffarpur Kalan, Delhi, 110073, India",0,0,3.9584751998883467,6.709389180042946,0.07022421457063936,0.1426938586682032,0.894736842105263
22,8.2,28.6001655,76.9160966,YADAV SWEETS,0,"Rawta More, Jaffarpur Kalan, Delhi","Rawta More, Jaffarpur Kalan, Delhi, 110073, India",0,0,3.9344622676901557,6.816915261116753,0.06980985954065629,0.1450444944929297,0.5263157894736838
23,8.4,28.5986223,76.9167568,Half & full,0,"Main rawta mor dhansa road new delhi 11073, New delhi najafgarh","Main rawta mor dhansa road new delhi 11073, Rawta More, Jaffarpur Kalan, New delhi najafgarh, Delhi 110073, India",0,0,4.0936010311544235,6.725977372036854,0.07255587766799163,0.14305649439321913,0.5789473684210524
24,9.4,28.6358331,76.9621846,Aditya's ICE & SPICE FAST FOOD RESTAURANT,1,"Block A1, Naveen Palace, Jharoda Kalan","Block A1, Naveen Palace, Jharoda Kalan, Delhi, 110072, India",0,0,4.86809346005495,12.740309824129492,0.08592012785410265,0.2745362729038858,0.8421052631578949
25,9.6,28.6335375,76.9609478,Rakesh Chinese Food,0,"Vinoba Enclave Extn, Jharoda Kalan, Delhi","Vinoba Enclave Extn, Block A1, Naveen Palace, Jharoda Kalan, Delhi, 110072, India",0,0,4.938002594923894,12.46683570104632,0.08712644457692648,0.2685578343293997,0.894736842105263
26,8.6,28.6340784,76.9647676,Milkiyat Cafe CRPF Camp.,0,"Najafgarh Bahadurgarh Rd, Sainic Enc, Part 2, Najafgarh, Delhi","Najafgarh Bahadurgarh Rd, Sainic Enc, Part 2, Chanchal Park Colony, Najafgarh, Delhi, 110072, India",1,0,5.186738011326314,12.751051303058418,0.09141849729546299,0.27477109319054305,0.631578947368421
27,7.0,28.710538,77.0278979999999,Burger Street,1,"Main Road,, Shanti Nagar, Delhi","Main Road,, Shanti Nagar, Block A, Bhagya Vihar, Mubarakpur Dabas, Delhi, 110035, India",0,0,4.50731700136343,23.22463216062296,0.07969475149754193,0.5037348397634493,0.21052631578947367
28,9.6,28.726342,77.053286,Sunny Vaishno Dhaba,1,"Jain Nagar, Near Balaji Mandir, Bus Stand, Main Kanjhawala Road, Delhi","Jain Nagar, Near Balaji Mandir, Bus Stand, Main Kanjhawala Road, Sher Singh Enclave, Sector 39, Rohini, Delhi, 110081, India",0,0,5.294146542759747,26.15719246818349,0.09327188466586882,0.5678437633686075,0.894736842105263
29,8.2,28.7508354,77.0814872999999,Fast Food Corner (FFC),0,"Deep Vihar Road, Prahladpur Bangar, Sector 31, Rohini, Delhi","Deep Vihar Rd, Prahladpur Bangar, Sector 31, Rohini, Delhi, 110042, India",0,0,5.675993284722523,30.007949497591518,0.09986083918875072,0.6520254552451181,0.5263157894736838
30,9.8,28.773898,77.100302,Chicken Corner,0,"Unnamed Road, Khera Khurd, Delhi","Unnamed Road, Khera Khurd, Delhi, 110082, India",0,0,5.454021154397951,33.151813048413494,0.09603060021764437,0.7207536950992366,0.9473684210526316
31,9.4,28.797944,77.1281719999999,Madan Dhaba,0,"Narela Road, Alipur Village, Delhi","Narela Rd, Alipur Village, Delhi, 110036, India",0,0,5.842659853857471,36.94288975318592,0.10273675332872781,0.8036307108662974,0.8421052631578949
32,8.4,28.797434,77.131771,Burger Box,0,"Near Allhabad Bank, Main Narela Road, Alipur","Near Allhabad Bank, Main Narela Rd, Alipur, Delhi, 110036, India",0,0,6.149214057638155,37.123147600582065,0.10802649784016875,0.807571341358416,0.5789473684210524
33,8.2,28.7925808,77.1341628999999,Nandu Bhojnalya,1,"Alipur, New Delhi","Alipur, New Delhi, Delhi 110036, India",0,0,6.67307904137993,36.85677899926525,0.11706604741511657,0.8017482371349132,0.5263157894736838
34,8.2,28.793189,77.135311,Changegi Chicken corner,0,"Near Wine Shop, Khatri Complex, Alipur, Block E, Alipur","Near Wine Shop, Khatri Complex, Alipur, Block E, Alipur, Delhi, 110036, India",0,0,6.716201797446976,36.9802312441948,0.11781015191412732,0.8044470360372474,0.5263157894736838
35,8.4,28.797606,77.1449566999999,Carnival Banquets,0,"1000, Narela Road, Alipur, Delhi","1000, Narela Rd, Alipur, Delhi, 110036, India",0,0,7.12761469119705,37.95812916630982,0.12490928501949959,0.8258249367818243,0.5789473684210524
36,10.0,28.8062229,77.1539253999999,Jassi Da Dhabba,1,"Palla Bakhtawarpur Road, Bakhtawar Pur Village, Delhi","Palla Bakhtawarpur Rd, Bakhtawar Pur Village, Delhi, 110036, India",0,0,7.190324149671772,39.25312878577586,0.1259913677627505,0.8541350218153761,0.9999999999999998
37,9.8,28.8228944,77.1717726,THE BURGER BANK,1,"Shop 1 Sharma market, opposite bank of India, Bakhtawar Pur","Shop 1 Sharma market, opposite bank of India, Bakhtawar Pur, Bakhtawarpur, Delhi, 110036, India",0,0,7.348833756263872,41.789275012820596,0.12872652947686317,0.9095779070995914,0.9473684210526316
38,10.0,28.5694345,76.9070904,DELHI- 73 PIZZA STORE,1,"Ujwa, Delhi","Ujwa, Delhi, 110073, India",0,0,5.438432485207334,3.625544889488422,0.09576161001534157,0.07527770442112376,0.9999999999999998
39,10.0,28.5704185,76.9077947999999,Radisson Fast And Food Plaza,1,"Ujwa, New Delhi","Ujwa, New Delhi, Delhi 110073, India",0,0,5.421547004484778,3.753667658246222,0.09547024268821439,0.07807860599958366,0.9999999999999998
40,8.4,28.6083486,76.9451905,Saini Sweets Corner,0,"Mitraon, Najafgarh, Delhi","Mitraon, Najafgarh, Delhi, 110043, India",0,0,5.540872059033892,9.329813695703674,0.09752925556291676,0.19997915802060534,0.5789473684210524
41,7.6,28.6612746,77.0098206999999,South Indian Cafe,0,"Pocket B1, Lok Nayak Puram, Bakkarwala, Delhi","Pocket B1, Lok Nayak Puram, Bakkarwala, Delhi, 110041, India",1,0,6.643395024154756,17.88404592256408,0.11655383500615964,0.3869838784073343,0.36842105263157876
42,7.8,28.6823457,77.0275501,Kaleva Sweet Shop,1,"215, 216, Rohtak Road, Smarak Park, Mundka, Delhi","215, 216, Rohtak Rd, Smarak Park, Mundka, Delhi, 110041, India",0,0,6.480976384913245,20.79081538683811,0.11375122099895409,0.45052898642864786,0.4210526315789471
43,8.6,28.6823154,77.0283115,Raju Dhaba,0,"Main Rohtak Road, Opposite - Metro Pillar No - 535, Mundka","Main Rohtak Road, Opposite - Metro Pillar No - 535, Smarak Park, Mundka, Delhi 110041, India",0,0,6.540345168066324,20.835632735577665,0.11477565873610415,0.4515087418932235,0.631578947368421
44,8.4,28.6823323,77.0287701,Hari Om Sweet,0,"shop no7 Himanshu market Mundka, Mundka","shop no7 Himanshu market Mundka, Smarak Park, Mundka, Delhi, 110041, India",0,0,6.573610130556522,20.865633991152862,0.1153496621279536,0.452164601619883,0.5789473684210524
45,8.6,28.6825056,77.0291498999999,Aggarwal Sweets,0,"Pillar No 530, Metro Station, Rohtak Road, Mundka, Delhi","Pillar No 530, Metro Station, Rohtak Rd, West Cabin Block, Mundka, Delhi, 110041, India",1,0,6.589858353289885,20.904109211585347,0.1156300332530743,0.4530057113358668,0.631578947368421
46,8.8,28.685095,77.0327959999999,Dilip Bhai Ke Chole Quelche,1,"Firni Road, West Cabin Block, Mundka, New Delhi","Firni Rd, West Cabin Block, Mundka, New Delhi, Delhi 110041, India",0,0,6.680172198168591,21.35266752581702,0.117188443346175,0.46281167871031387,0.6842105263157896
47,8.6,28.6883642,77.0398958999999,Allahabadi resturent,0,"Hind Vihar, West Cabin Block, Mundka, Delhi","Hind Vihar, West Cabin Block, Mundka, Delhi, 110041, India",0,0,6.981808098673767,22.07442385593967,0.12239332010034377,0.4785900486589487,0.631578947368421
48,9.2,28.6821257,77.0381350999999,Prem Ji Ke Special Naan,0,"Swaran Park, Mundka, Delhi","Swaran Park, Mundka, Delhi, 110041, India",0,0,7.292042888277558,21.431089020945564,0.1277465749418228,0.464526056971261,0.7894736842105259
49,7.0,28.7016379999999,77.0478112,welcome restaurant & hotel,1,"Block Z, Prem Nagar III, Kirari Suleman Nagar, Delhi","Block Z, Prem Nagar III, Kirari Suleman Nagar, Delhi, 110086, India",0,0,6.635023267038041,23.702817011604534,0.11640937619361325,0.5141884751078569,0.21052631578947367
50,8.6,28.6921279,77.0431983999999,GHAZNI CHOWMEIN SHOP,0,"Prem Nagar III, Prem Nagar, Delhi","Prem Nagar III, Prem Nagar, Delhi, 110086, India",0,0,6.962994497569884,22.60203130730614,0.12206868210173749,0.4901241152239096,0.631578947368421
51,8.4,28.6998294,77.0515619,SHRI RAM SWEETS,0,A-15 INDER ENCLAVE MAIN MUBARIK PUR ROAD,"A-15 INDER ENCLAVE MAIN MUBARIK PUR ROAD, Baljit Vihar, Delhi, 110086, India",0,0,7.045163767602839,23.781600632339977,0.12348655352481833,0.5159107698241991,0.5789473684210524
52,8.8,28.7064,77.051541,Raj Egg Roll Centre,0,"Block B, Baljit Vihar, Delhi","Block B, Baljit Vihar, Delhi, 110086, India",0,0,6.577512921980087,24.342414732920655,0.11541700672560547,0.5281707694696046,0.6842105263157896
53,8.0,28.704981,77.057192,Lallan Top Family Restaurant & Chinese Fast Food,1,"Plot No. 29 A, Partap Vihar Part-3, Gali No 17 Main Kirari Expressway, Sukhi Nahar Road, Delhi","Plot No. 29 A, Partap Vihar Part-3, Gali No 17 Main Kirari Expressway, Sukhi Nahar Rd, Block A, Nithari, Baljit Vihar, Delhi, 110086, India",0,0,7.10280788944562,24.572823169510716,0.12448123137745946,0.5332077458009196,0.4736842105263157
54,9.0,28.699199,77.0524399999999,Sameer Biryani Dhaba,0,"Main Mubarakpur Road, Prem Nagar II, Prem Nagar, Delhi","Main Mubarakpur Road, Block W, Prem Nagar II, Prem Nagar, Delhi, 110081, India",0,0,7.155866613095856,23.782340273864893,0.12539678591480222,0.5159269391837495,0.7368421052631577
55,9.0,28.7148574,77.0575274999999,Balaji Canteen,0,"100 Feet Road, Lakhi Ram Park, Pratap Vihar, Sultanpuri, Delhi","100 Feet Rd, Lakhi Ram Park, Pratap Vihar, Sultanpuri, Delhi, 110085, India",0,0,6.427460670316493,25.43863382982501,0.1128277808566472,0.5521352984024871,0.7368421052631577
56,8.6,28.69811,77.052801,Bankey Bihari Dhaba,0,"Opposite - veer Bazar Road, Near Kirari Nahar Bus Stand, Main Mubarak Pur, Road, Kirari","Opposite - veer Bazar Road, Near Kirari Nahar Bus Stand, Main Mubarak Pur, Road, Kirari Nahar, Block W, Prem Nagar I, Prem Nagar, Kirari, Delhi 110086, India",0,0,7.26024337487811,23.71165473578087,0.12719785859934013,0.5143816772672818,0.631578947368421
57,6.6,28.718729,77.0616139999999,Party Karo,1,"Plot No. 145, -5, Pocket 5, Sector 22, Rohini, New Delhi","Plot No. 145, -5, Pocket 5, Sector 22, Rohini, Pocket 5, Sector 22, Begum Pur, New Delhi, Delhi 110086, India",0,0,6.459916006348271,26.02423691808563,0.113387813743242,0.5649372119902334,0.10526315789473673
58,10.0,28.7203112,77.0658581,Hungry Jacks,1,"CH Bhim Singh Nambardar Marg, Sector 22, Rohini, Delhi","CH Bhim Singh Nambardar Marg, Sector 22, Rohini, Delhi, 110085, India",0,0,6.666599565606792,26.423781041834186,0.11695424085371482,0.5736716764240078,0.9999999999999998
59,8.0,28.711372,77.069874,Apni Rasoi,1,"Plot- 19, Pocket-12, Sunday Market Road,, Sector 20, Rohini, Delhi","Plot- 19, Pocket-12, Sunday Market Road,, Pocket 12, Sector 20, Rohini, Delhi, 110085, India",0,0,7.602432159036584,25.90905459405475,0.1331024954320939,0.5624192024567474,0.4736842105263157
60,7.0,28.7112549,77.0698072,Green O Mania,1,"85, 85, Sector 20, Rohini, Delhi","85, 85, Pocket 12, Sector 20, Rohini, Delhi, 110086, India",0,0,7.6057189876277995,25.89487897298906,0.13315921128621042,0.5621093081280226,0.21052631578947367
61,8.2,28.718267,77.0639788,Panjabi Egg Corner,0,"183, Pocket 5, Sector 22, Rohini, Delhi","183, Pocket 5, Sector 22, Rohini, Delhi, 110086, India",0,0,6.670381502468197,26.131917259150217,0.11701950004608115,0.5672912201043341,0.5263157894736838
62,8.6,28.7195337,77.0650369999999,SGF restaurant sector22,1,"171 Pocket, 6, Sector 22, Rohini, Delhi","171 Pocket, 6, Pocket-6, Sector 22, Rohini, Delhi, 110086, India",0,0,6.660049027907219,26.306154429543607,0.1168412080836012,0.5711002321192381,0.631578947368421
63,10.0,28.7195799,77.0650339,SGF Restaurant,1,"#171, pocket 6 , Sector 22 Rohini Opp. Maharaja Agarsen College","#171, pocket 6 , Sector 22 Rohini Opp. Maharaja Agarsen College, Pocket-6, Sector 22, Begum Pur, Delhi, 110086, India",0,0,6.656539116588757,26.309913868268527,0.11678064282661402,0.5711824174947248,0.9999999999999998
64,8.2,28.7232543,77.0644305,Testey Pizza,0,"Road, Barwala, A-10, Begampur Barwala Road, Begampur, Sector 33, Begum Pur, Delhi","Road, Barwala, A-10, Begampur Barwala Rd, Begampur, Sector 33, Begum Pur, Delhi, 110086, India",0,0,6.350575077415953,26.58670273702286,0.11150108189757671,0.5772333199760759,0.5263157894736838
65,8.2,28.7215784,77.0660693,Rai Food Point,0,"CN4, Begampur Extension, Sector 33, Rohini, Delhi","CN4, Begampur Extension, Sector 33, Rohini, Delhi, 110086, India",0,0,6.592587165348273,26.54533666279792,0.11567712025573351,0.576329013085781,0.5263157894736838
66,9.4,28.7206516,77.0666164999999,R China Hut,0,"CH Bhim Singh Nambardar Marg, Pocket 5, Sector 22, Rohini, Delhi","CH Bhim Singh Nambardar Marg, Pocket 5, Sector 22, Rohini, Delhi, 110085, India",1,0,6.699442182088651,26.50011061211177,0.11752095645615544,0.575340322956911,0.8421052631578949
67,9.2,28.723862,77.064702,R.B.C Caterers,0,"Main Begumpur Road, Near Hanuman Mandir, Begumpur","Main Begumpur Road, Near Hanuman Mandir, Begampur, Sector 38, Begum Pur, Begumpur, Delhi 110086, India",0,0,6.327872412318438,26.65559239909569,0.11110933617491627,0.5787393221106699,0.7894736842105259
68,8.2,28.7237548,77.0648549,Da Pizza Hub Order Online,0,"1026, Begumpur Gaon Road, Begampur, Sector 38, Rohini, Delhi","1026, Begumpur Gaon Rd, Begampur, Sector 38, Rohini, Delhi, 110086, India",0,0,6.346965100630561,26.65593853236843,0.11143878996143149,0.5787468889564334,0.5263157894736838
69,8.6,28.7237445,77.0648824,The Chinese Restaurant Online,0,"Begampur, Sector 38, Begum Pur, New Delhi","Begampur, Sector 38, Begum Pur, New Delhi, Delhi 110086, India",0,0,6.349762054674629,26.656769095546334,0.11148705278777964,0.5787650459611451,0.631578947368421
70,6.8,28.7238024,77.0653518,Da Pizza Hub,1,"Main Begumpur Road Near Hanuman Mandir Delhi, Delhi","Main Begumpur Road Near Hanuman Mandir Delhi, Begampur, Sector 38, Begum Pur, Delhi, 110086, India",0,0,6.380926576970751,26.690940550004512,0.11202481204449342,0.5795120707223029,0.1578947368421051
71,8.8,28.7128063,77.0688584,Gulati Ki Rasoi,0,"94-95, 2nd Floor, Pocket- 6, Sector 21, Rohini, New Delhi","94-95, 2nd Floor, Pocket- 6, Sector 21, Rohini, New Delhi, Delhi 110086, India",0,0,7.424378949900241,25.9685263785114,0.13003009918321637,0.5637193196535069,0.6842105263157896
72,7.2,28.731666,77.088133,Wah Ji Wah,1,"Flat No.142, Pocket 26, Sector-24, Rohini, Opposite Canara Bank, Delhi","Flat No.142, Pocket 26, Sector-24, Rohini, Opposite Canara Bank, Pocket 26, Sector-24, Rohini, Delhi, 110086, India",0,0,7.534935069998052,28.781643311333813,0.13193779975388603,0.6252170825720506,0.26315789473684204
73,7.2,28.730317,77.0861747,Best Restaurant In Rohini Delhi - Dilli Rasoi - Family Restaurant In Rohini,1,"Shop No.152, Pocket 12, Sector-24, Rohini, New Delhi","Shop No.152, Pocket 12, Sector-24, Rohini, New Delhi, Delhi 110085, India",0,0,7.483475714004579,28.544355912141643,0.13104984309704795,0.6200297247168487,0.26315789473684204
74,10.0,28.728638,77.0858058,Karchhi,1,"Best Star Mall, Shop No-8, Pocket-7, Best Star Mall, Sector-24, Rohini, Delhi","Shop No-8, Pocket-7, Best Star Mall, Best Star Mall, Pocket 7, Sector-24, Rohini, Delhi, 110085, India",1,0,7.574846896923593,28.37776853360572,0.13262649808135052,0.6163879453827258,0.9999999999999998
75,8.2,28.7295157,77.0901283,The Big Bun,1,"154, Pocket 12, Sector-24, Rohini, Delhi","154, Pocket 12, Sector-24, Rohini, Delhi, 110085, India",1,0,7.837374730956423,28.721898981652693,0.13715654579248598,0.6239110072434397,0.5263157894736838
76,8.8,28.7255483,77.086541,Chaap Tadka,0,"133, Pocket -2, Sector -24, Rohini, Delhi","133, Pocket -2, Sector -24, Rohini, Pocket-3, Sector-24, Rohini, Delhi, 110085, India",0,0,7.849239708035666,28.15923494035501,0.13736128184441174,0.6116105659035208,0.6842105263157896
77,7.8,28.7467628,77.0959876999999,Mr. Veg Restaurant and Pizza Point - Rohini,1,"Bawana Road, Shiv Vihar, Sector 28, Rohini, Delhi","Bawana Rd, Shiv Vihar, Sector 28, Rohini, Delhi, 110042, India",2,0,7.054345476403745,30.56194137589381,0.12364498845455099,0.6641363137711628,0.4210526315789471
78,8.6,28.745877,77.0970509999999,Manish Dhaba,0,"Shop No. A-475, Bawana Auchandi Road, Sahibabad Dairy, Rohini, Delhi","Shop No. A-475, Bawana Auchandi Road, Sahibabad Dairy, Prahladpur, Rohini, Delhi, 110042, India",0,0,7.197061796151918,30.552340859164097,0.12610762918748006,0.6639264361457962,0.631578947368421
79,9.0,28.7424286,77.097538,E-block Souchalay,0,"Sahibabad Dairy, Prahladpur, Rohini, Delhi","Sahibabad Dairy, Prahladpur, Rohini, Delhi, 110042, India",0,0,7.478231681220451,30.287664683394034,0.13095935471588876,0.6581403301657069,0.7368421052631577
80,9.2,28.7725753,77.1200568,Bansal sweets,0,"Khera Kalan Village, Delhi","Khera Kalan Village, Delhi, 110082, India",0,0,7.0320467089753755,34.26781332044424,0.12326021218607579,0.7451506618038943,0.7894736842105259
81,8.8,28.7814735999999,77.1370455999999,"Shakeel tikki wala""STW""",0,"near, budhe baba mandir, Pandit Kanwal Singh Road, Budhpur, Delhi","budhe baba mandir, near, Pandit Kanwal Singh Rd, Budhpur, Delhi, 110036, India",0,0,7.677335372910951,36.08601257294005,0.13439498745991385,0.7848984537509841,0.6842105263157896
82,8.2,28.8220378999999,77.1715040999999,RAA Restaurant,0,"Ch. Phool Singh Market, near Subhash Chowk, Bakhtawar Pur Village, Delhi","Ch. Phool Singh Market, near Subhash Chowk, Bakhtawar Pur Village, Delhi, 110036, India",0,0,7.389398712666898,41.69931381392498,0.12942649787671998,0.9076112584981769,0.5263157894736838
83,9.4,28.553198,76.9110024,Arpin chicken shopðŸ”,0,"Unnamed Road, Dariyapur Khurd, Delhi","Unnamed Road, Dariyapur Khurd, Delhi, 110073, India",0,0,6.8851143249492495,2.479380450643897,0.12072482117734186,0.05022131657484718,0.8421052631578949
84,8.4,28.6103987,76.972433,Chilli chatka,0,"rz-18 b prem nursury main dhansa road new, Gopal Nagar Extension, Najafgarh, Delhi","rz-18 b prem nursury main dhansa road new, Gopal Nagar Extension, Najafgarh, Nanda Enclave, Block B, New Gopal Nagar, Najafgarh, Delhi, 110043, India",0,0,7.443252928841823,11.202459126209687,0.13035577903129542,0.24091720200024505,0.5789473684210524
85,6.8,28.6134488,76.9766832999999,Bikaner Sweets & Restaurants,1,"Najafgarh Bahadurgarh Road, Najafgarh","Najafgarh Bahadurgarh Rd, Najafgarh Village, Najafgarh, Delhi, 110043, India",0,0,7.54628291927338,11.728215240131863,0.13213361250960923,0.2524107963367312,0.1578947368421051
86,8.6,28.6137211,76.9762849999999,NBC Bakery,0,"Najafgarh Village, Najafgarh, New Delhi","Najafgarh Village, Najafgarh, New Delhi, Delhi 110043, India",0,0,7.497017311729226,11.726698780613072,0.13128351006803277,0.25237764490001907,0.631578947368421
87,8.2,28.610013,76.974707,Baba Haridas,0,"Thana Road, Najafgarh Dauralla Road, Prem Nagar, Najafgarh, New Delhi","Thana Road, Najafgarh Dauralla Rd, Prem Nagar, Najafgarh, New Delhi, Delhi 110043, India",0,0,7.641567301773649,11.311130906013801,0.133777791689476,0.2432928840319281,0.5263157894736838
88,10.0,28.6113043,76.9795838,THIKANA 43,1,"1625/4A, Najafgarh Thana Road, opp HP petrol pump, Najafgarh, Delhi","1625/4A, Najafgarh Thana Rd, opp HP petrol pump, Najafgarh, Delhi, 110043, India",0,0,7.9165156350261405,11.725438989478532,0.13852216126201894,0.2523501045103485,0.9999999999999998
89,8.4,28.6327515,76.9965795,A.P.G Gola,0,"Dichaon Enclave, Dichaon Kalan, Delhi","Dichaon Enclave, Dichaon Kalan, Delhi, 110043, India",0,0,7.671991418017002,14.61909103455605,0.13430277487329448,0.31560845163436774,0.5789473684210524
90,8.6,28.6505348,77.0222383,Choudhary Sweets And Fast Food,0,"13 no. gali, 526, Nangloi - Najafgarh Road, Chanchal Park, Laxmi Park, Delhi","13 no. gali, 526, Nangloi - Najafgarh Rd, Chanchal Park, Laxmi Park, Ranhola Extesion, Delhi, 110041, India",0,0,8.338650116249314,17.73863675384355,0.14580630066575642,0.3838050775264247,0.631578947368421
91,8.6,28.6801785,77.0520236,Krishna Sweets,1,"E-6, Block A, Amar Colony, Nangloi Extension, Nangloi, New Delhi","E-6, Block A, Amar Colony, Nangloi Extension, Nangloi, Block A, Nangloi Extension, Nangloi, New Delhi, Delhi 110041, India",0,0,8.47388856158367,22.12933457792654,0.1481399069745938,0.47979045612265353,0.631578947368421
92,9.0,28.682509,77.0408159999999,Mittraan Da Dhaba,0,"Shop No-486, National Highway 10, Gulshan Park, Mundka, Delhi","Shop No-486, National Highway 10, Gulshan Park, Mundka, Delhi, 110041, India",0,0,7.466318497849123,21.63081198369496,0.130753786840534,0.4688922158284502,0.7368421052631577
93,7.8,28.6883127,77.0468865,SINGH SWEETS & ICE CREAM SHOP,1,"B-1,Gali no1sharda vats enclave sukhi nahar, Prem Nagar III, Prem Nagar, Delhi","B-1,Gali no1sharda vats enclave sukhi nahar, Hind Vihar, Prem Nagar III, Prem Nagar, Delhi, 110086, India",0,0,7.510789390149716,22.50528252403876,0.1315211540974979,0.4880090827250417,0.4210526315789471
94,8.2,28.694999,77.0551229999999,Gopal Ji Momos,1,"A-71 Gali No-5, Gourav Nagar II, Block M, Prem Nagar III, Kirari Suleman Nagar, Delhi","A-71 Gali No-5, Gourav Nagar II, Block M, Prem Nagar III, Kirari Suleman Nagar, Delhi, 110086, India",0,0,7.655416359290345,23.59009104864027,0.13401676403134605,0.5117241642702035,0.5263157894736838
95,7.8,28.6824357,77.0551000999999,Domino's Pizza,1,"Ground Floor, Plot no. 27, Ratan Park, Main Rohtak Road, Opposite Metro Pillar No 431, Nangloi, New Delhi","Ground Floor, Plot no. 27, Ratan Park, Main Rohtak Road, Opposite Metro Pillar No 431, Nangloi, Gulshan Park, Mubarkpur, New Delhi, Delhi 110041, India",2,0,8.544946865168285,22.51398388859792,0.14936605317237334,0.4881993039165192,0.4210526315789471
96,8.2,28.6949326,77.0594115999999,Apple Pizza,1,"Block I, Prem Nagar I, Prem Nagar, Delhi","Block I, Prem Nagar I, Prem Nagar, Delhi, 110086, India",0,0,7.982395327833567,23.85142600040559,0.13965894796774886,0.5174372274985664,0.5263157894736838
97,9.0,28.7050885,77.0646417,Yam Yam Fast Food,0,"Block-A, Jagdamba Market Road, Karan Vihar Phase V, Karan Vihar, Sultanpuri, Delhi","Block-A, Jagdamba Market Rd, Karan Vihar Phase V, Karan Vihar, Sultanpuri, Delhi, 110086, India",0,0,7.654979490350405,25.04580803510629,0.1340092256415645,0.5435477038698763,0.7368421052631577
98,9.0,28.711356,77.0698259999999,Spice square,1,"H no 84 pocket 10 sector 20 rohini delhi 110086, Delhi","H no 84 pocket 10 sector 20 rohini delhi 110086, Pocket 12, Sector 20, Rohini, Delhi, 110086, India",0,0,7.599960287865779,25.904697752905122,0.13305984207161964,0.5623239572214827,0.7368421052631577
99,6.6,28.7113943,77.0696741999999,Mote Ram Snacks,0,"Sunday Bazaar Road, Pocket 12, Sector 20, Rohini, Delhi","Sunday Bazaar Rd, Pocket 12, Sector 20, Rohini, Delhi, 110085, India",1,0,7.585837018064932,25.898524041694955,0.13281613806106862,0.5621889932518372,0.10526315789473673
100,8.8,28.711357,77.0688531,Aapki Apni Rasoi,0,"block B, Sector 8, Rohini, Delhi","block B, Pocket 12, Sector 8, Rohini, Delhi, 110086, India",0,0,7.5267838678773185,25.844217285179816,0.13179714672695628,0.5610017891231798,0.6842105263157896
101,9.6,28.7103302,77.0713016,Gudluck Family Restaurant,0,"D1/81, Sunday Bazaar Road, Sector 20, Rohini, Delhi","D1/81, Sunday Bazaar Rd, Pocket 12, Sector 20, Rohini, Delhi, 110086, India",0,0,7.783603213532744,25.90880940861448,0.13622869164579401,0.5624138424392163,0.894736842105263
102,9.0,28.7084999,77.073037,Chobdar House,1,"128, Pocket D 4, Sector 20, Rohini, Delhi","128, Pocket D 4, Sector 20, Rohini, Delhi, 110086, India",0,0,8.043835552370581,25.860280154152946,0.14071912945121298,0.5613529407217414,0.7368421052631577
103,9.8,28.710672,77.0745369,Gudluck Family Restaurent,0,"d1, 81, Sector 20, Rohini, New Delhi","d1, 81, Sector 20, Rohini, New Delhi, Delhi 110086, India",0,0,8.0024633989737,26.139457329297727,0.14000523246771504,0.5674560541504807,0.9473684210526316
104,9.4,28.7146895,77.0714182999999,Flavorzz The Food Factory,0,"430, Pocket 9, Sector 21, Rohini, Delhi","430, Pocket 9, Sector 21, Rohini, Delhi, 110086, India",0,0,7.483153414934901,26.28898143891356,0.13104428166708273,0.5707248120668234,0.8421052631578949
105,8.8,28.7026044,77.0689107,Yummy Pizza Corner,0,"c-631 main jagdhamba market, Aman Vihar, Delhi","c-631 main jagdhamba market, Block H, Aman Vihar, Sultanpuri, Delhi, 110086, India",0,0,8.151977485398193,25.099090498202557,0.14258517202911442,0.544712515842311,0.6842105263157896
106,9.4,28.7247251,77.0852479,Grand Bakers,0,"A-3/1, Pocket-3, Sector 5, Rohini, Delhi","A-3/1, Pocket-3, Sector 5, Rohini, Delhi, 110085, India",1,0,7.810468197143626,28.008327233031817,0.1366922602344906,0.6083115610526163,0.8421052631578949
107,8.4,28.7118173,77.0806171,Bul Bul Dhaba,0,"Main Kanjhawala Road,, Kanjhawala Road, Pooth Kalan, Rohini, Delhi","Main Kanjhawala Road,, Kanjhawala Rd, Pooth Kalan, Rohini, Delhi, 110086, India",0,0,8.378094271153913,26.615940668024585,0.1464869290810311,0.5778724926062618,0.5789473684210524
108,8.8,28.7268011,77.0944885999999,Punjabi Chaap Corner,1,"25,Ground, floor shop best mega mall,Near Bobosa, Rohini Sector 24,Delhi., Vinoba Kunj, Sector-24, Rohini, Delhi","25,Ground, floor shop best mega mall,Near Bobosa, Rohini Sector 24,Delhi., Vinoba Kunj, Sector-24, Rohini, Delhi, 110085, India",0,0,8.35754175619288,28.7611054700901,0.1461322852631658,0.6247681032648175,0.6842105263157896
109,8.8,28.7311819,77.0939943,Fun N Food Town,0,"Pocket 1, Sector 25, Rohini, Delhi","Pocket 1, Sector 25, Rohini, Pocket 1, Sector 25, Rohini, Delhi, 110085, India",0,0,8.009672110241334,29.105059488601505,0.1401296223485004,0.6322873081860548,0.6842105263157896
110,7.4,28.7256107,77.0955274,Barshala,1,"Best Mega Mall, Sector-24, Rohini","Best Mega Mall, Pocket 19, Sector-24, Rohini, Delhi, 110086, India",1,0,8.520030373912864,28.723945807432205,0.14893610678365238,0.6239557530572576,0.3157894736842106
111,9.6,28.7209419,77.1014983,Hari Om Traders,0,"1111, 1st Floor, Rithala Road, Manigram Park Extension, Budh Vihar Phase II, Rohini, Delhi","1111, 1st Floor, Rithala Road, Manigram Park Extension, Budh Vihar Phase II, Rohini, Rithala Extension, Rithala, Rohini, Delhi, 110086, India",0,0,9.2998367316842,28.696294111047298,0.1623920514424925,0.623351257222501,0.894736842105263
112,8.8,28.7262957,77.09479,Grill Masters,1,"Plot No.146, Pocket 17, Sector-24, Near Best Mega Mall, Rohini, New Delhi","Plot No.146, Pocket 17, Sector-24, Near Best Mega Mall, Pocket 17, Sector-24, Rohini, New Delhi, Delhi 110085, India",0,0,8.416036491077787,28.73663669941137,0.1471416408648492,0.6242331896106598,0.6842105263157896
113,10.0,28.7309452999999,77.0944425,Delhi Grillz,1,"217,ground floor, Pocket 1, Sector 25, Rohini, Delhi","217,ground floor, Pocket 1, Sector 25, Rohini, Delhi, 110042, India",0,0,8.060130176131398,29.112718769387858,0.14100030124902804,0.632454748305031,0.9999999999999998
114,8.6,28.725541,77.0947492,Quality Baker's Chinese & Fast Food,0,"Shop No. 191, Opp Best Mega Mall, Pocket 17, Sector-24, Rohini, Delhi","Shop No. 191, Opp Best Mega Mall, Pocket 17, Sector-24, Rohini, Pocket 17, Sector-24, Rohini, Delhi, 110085, India",2,0,8.466502545645207,28.66954337911346,0.14801245761395854,0.6227664574400353,0.631578947368421
115,7.2,28.7253309999999,77.0946449,Quality Baker's Chinese & Fast Food,0,"Shop No. 191, Near Best Mega Mall,, Pocket 17, Sector-24, Rohini, Rohini","Shop No. 191, Near Best Mega Mall,, Pocket 17, Sector-24, Rohini, Delhi 110085, India",2,0,8.473561286670131,28.645088591804672,0.14813425968398,0.6222318494773901,0.26315789473684204
116,9.2,28.7311634999999,77.0947920999999,Hunger Calling,0,"166, Pocket 1, Sector 25, Rohini, Delhi","166, Pocket 1, Sector 25, Rohini, Delhi, 110085, India",0,0,8.070921177776485,29.153143585956904,0.14118650532328658,0.6333384782902239,0.7894736842105259
117,9.0,28.7261472,77.0953086999999,Tummy Fuel Up,0,"chinese van no. 1, Pocket 17, Sector-24, Rohini, Delhi","chinese van no. 1, Vinoba Kunj, Pocket 17, Sector-24, Rohini, Delhi, 110085, India",0,0,8.46554334231081,28.756222006912616,0.14799590608567767,0.624661345505406,0.7368421052631577
118,7.6,28.732275,77.110804,Handi Chic Fish,1,"C.S.C.-3,Shop No.2, DDA Market, Sector 11, Rohini","C.S.C.-3,Shop No.2, DDA Market, Sector 11, Pocket 2, Sector 11D, Rohini, Delhi 110085, India",0,0,9.195145301160194,30.244860335802024,0.16058554899307426,0.6572045810721009,0.36842105263157876
119,8.0,28.7346109999999,77.11368,Domino's Pizza,1,"SHOP NO. 10-11, GARG MALL, COMMUNITY CENTRE, SECTOR - 11, ROHINI, New Delhi","SHOP NO. 10-11, GARG MALL, COMMUNITY CENTRE, SECTOR - 11, ROHINI, Pocket 4, Sector 11E, Rohini, New Delhi, Delhi 110020, India",2,0,9.245537961832937,30.623669184911066,0.16145509929420554,0.6654857500921819,0.4736842105263157
120,9.4,28.7312185,77.1094784999999,White Chillies,0,"Pocket 3, Sector 11D, Rohini, Delhi","Pocket 3, Sector 11D, Rohini, Delhi, 110085, India",0,0,9.170492634786141,30.0719932894019,0.16016015503325817,0.6534255214418715,0.8421052631578949
121,8.6,28.7311614,77.1094597,White Chillies,0,"Shop No. 2, CSC-5, Sector 11, Rohini, Delhi","Shop No. 2, CSC-5, Pocket 3, Sector 11, Rohini, Delhi, 110085, India",0,0,9.173130255994398,30.06593935527687,0.1602056684926646,0.6532931759281811,0.631578947368421
122,7.4,28.73114,77.109475,Maha Laxmi Dhaba,1,"Shop No. 1, CSC-5, D-3, Sector 11, Rohini","Shop No. 1, CSC-5, D-3, Sector 11, Pocket 3, Sector 11D, Rohini, Delhi 110085, India",0,0,9.175797741970042,30.065061375371553,0.16025169728341346,0.6532739823427903,0.3157894736842106
123,9.6,28.7288259,77.1068059,amritsari kulcha point,0,"Sector 11, Rohini, New Delhi","Sector 11, Rohini, New Delhi, Delhi 110085, India",0,0,9.139396428772601,29.700997643409973,0.15962357460781262,0.6453151574485296,0.894736842105263
124,8.2,28.731113,77.10977,Punjabi Dhaba,1,"CSC- 5, Shop No. 6/16, DDA Market, Behind Veera Devi Jain Hospital, Sector 11, Rohini, Delhi","CSC- 5, Shop No. 6/16, DDA Market, Behind Veera Devi Jain Hospital, Pocket 3, Sector 11, Rohini, Delhi, 110085, India",0,0,9.199877661858073,30.081114372338448,0.16066720821913946,0.6536249181286738,0.5263157894736838
125,9.2,28.734607,77.111739,Big Bowl Cafe,1,"H-1/5, Ground Floor, Ganesh Chowk, Sector 11, Rohini, New Delhi","H-1/5, Ground Floor, Ganesh Chowk, Pocket 2, Sector 11, Rohini, New Delhi, Delhi 110085, India",2,0,9.0999864773793,30.502512870533387,0.15894353639105405,0.6628371427020129,0.7894736842105259
126,9.0,28.734368,77.111814,Wafflenesss by Big Bowl,1,"Shiv Mandir Lane, Sector 11, Rohini, Delhi","Shiv Mandir Ln, Pocket 2, Sector 11, Rohini, Delhi, 110085, India",0,0,9.122573800674525,30.486739542766845,0.15933329183382897,0.6624923207857586,0.7368421052631577
127,7.4,28.7456146,77.1185510999999,Aryabhatt Mess,1,"Delhi Technological University, Shahbad Daulatpur Village, Rohini, Delhi","Delhi Technological University, Shahbad Daulatpur Village, Rohini, Delhi, 110042, India",0,0,8.831050455757937,31.867982813131697,0.1543029122314254,0.692687784821627,0.3157894736842106
128,7.6,28.7381451,77.1167768,Wah Ji Wah,1,"A1/12, Sector 17, Rohini, Delhi","A1/12, Sector 17, Rohini, Pocket 1, Sector 17A, Rohini, Delhi, 110085, India",0,0,9.227538940488357,31.11868777740274,0.16114451727251217,0.676307389138228,0.36842105263157876
129,7.4,28.7373496,77.1164206999999,Apni Rasoi,1,"G-7/188, Giani Gurumukhi Musaphir Marg, Dividing Road, Sector 16, Rohini, Delhi","G-7/188, Giani Gurumukhi Musaphir Marg, Dividing Road, Sector 16, Rohini, G Block, Sector 16G, Rohini, Delhi, 110089, India",0,0,9.257208288078848,31.028485713216735,0.16165647654966211,0.6743354749624071,0.3157894736842106
130,7.2,28.7345085,77.1141693,CAFE MUZINO,1,"#104, 1st Floor, Above BTW,, Garg Trade Center, Sec-11, Rohini, Delhi","#104, 1st Floor, Above BTW,, Garg Trade Center, Sec-11, Rohini, Sector 11E, Rohini, Delhi, 110089, India",2,0,9.289571342998785,30.64535822803783,0.16221491707999872,0.6659598959112117,0.26315789473684204
131,7.6,28.7345005999999,77.1141767,BTW,1,"Garg Trade Centre, Near G3S Cinema, Sector 11, Rohini, Delhi","Garg Trade Centre, Near G3S Cinema, Sector 11, Rohini, Sector 11E, Rohini, Delhi, 110085, India",0,0,9.29068768314497,30.64514315690242,0.16223418008173984,0.6659551942247863,0.36842105263157876
132,8.6,28.7449858,77.1171265,Sachdeva Food Court,0,"1, Bawana Road, Block C, Block C, Rohini, Delhi","1, Bawana Rd, Block C, Rohini, Delhi, 110042, India",0,0,8.768615879826278,31.725537341635686,0.15322557272250475,0.6895737735508289,0.631578947368421
133,9.8,28.7446254,77.1182589999999,Leh cafÃ©,0,"Shabad Extension, Sector17, Rohini","Shabad Extension, Sector17, Rohini, Delhi, 110042, India",0,0,8.879265216740121,31.765196209443026,0.15513488179547158,0.69044075907197,0.9473684210526316
134,8.6,28.7395853,77.1161113,Mangu's Chicken,0,"A-7/86, Sector 17, Pocket 7, Sector 17,, Rohini, Pocket 7, Sector 17, Rohini, Delhi","A-7/86, Sector 17, Pocket 7, Sector 17,, Rohini, Pocket 7, Sector 17, Rohini, Delhi, 110089, India",0,0,9.075386072148522,31.20044507071791,0.15851904422313115,0.6780946915366795,0.631578947368421
135,9.6,28.739332,77.1158789999999,Chicken App,0,"Shop no. 7, DDA Market, Sector 17, Delhi","Shop no. 7, DDA Market, Sector 17, Rohini, Delhi, 110089, India",1,0,9.07589887783506,31.16432193690265,0.1585278929390592,0.6773050009648706,0.894736842105263
136,9.0,28.7408944,77.119062,Saini Chat Bhandar and Cateres,0,"Unnamed Road, Pocket 1, Sector17, Rohini","Unnamed Road, Pocket 1, Sector17, Rohini, Delhi, 110089, India",0,0,9.204227883602757,31.496063724742694,0.16074227344843234,0.6845572333839091,0.7368421052631577
137,8.4,28.7630254,77.1407594,Apni Rasoi Ishi,0,"Unnamed Road, Rana Park, Siraspur, Delhi","Unnamed Road, Rana Park, Siraspur, Delhi, 110042, India",0,0,9.264695451050862,34.73919595113177,0.16178567125242277,0.7554555932938399,0.5789473684210524
138,8.8,28.7719551999999,77.1452883,Mansoori Bhojnalaya,0,"Nangli Puna, Delhi","Nangli Puna, Delhi, 110036, India",0,0,8.971618454893823,35.78475208121673,0.15672848262890476,0.7783125752613415,0.6842105263157896
139,7.2,28.585062,76.9589653,Pizza point and bakery khar khari Nahar,0,Kharkhari Nahar,"Kharkhari Nahar, Delhi 110043, India",1,0,8.229233359616625,8.195435446165156,0.14391826037559127,0.17518042895388283,0.26315789473684204
140,8.4,28.610665,76.9804853999999,ChilisTreat,0,"1624/1, Thana Road, Opp OBC Bank, Najafgarh, Delhi","1624/1, Thana Road, Opp OBC Bank, Najafgarh, Prem Nagar, Najafgarh, Delhi, 110043, India",0,0,8.029663875260232,11.726912979612315,0.14047459014857788,0.25238232752060946,0.5789473684210524
141,7.6,28.6003939,76.9818332,Avdesh Fast Food & Bakery,0,"Shani Bazar Road, Block G, Roshanpura, Najafgarh, Delhi","Shani Bazar Rd, Block G, Roshanpura, Najafgarh, Delhi, 110043, India",1,0,8.860022346694207,10.932124599256504,0.1548028365488092,0.23500739837520213,0.36842105263157876
142,6.8,28.6004087,76.9823401,Munna Halwai,1,"120/121, Paprawat Rd Roshan Vihar II, Paprawat Road, Roshan Vihar II, Roshan Vihar 1, Najafgarh, Delhi","120/121, Paprawat Rd Roshan Vihar II, Paprawat Rd, Roshan Vihar II, Roshan Vihar 1, Najafgarh, Delhi, 110043, India",0,0,8.897078139187768,10.964972993631886,0.155442252588591,0.23572549961940645,0.1578947368421051
143,9.8,28.602148,76.9830552,RJ's Sweets Cakes And Pastry,0,"Corner, Nai Sarak New Roshan Pura Extn, Najafgarh Nai Sarak, Old Roshanpura, Najafgarh, Delhi","Corner, Nai Sarak New Roshan Pura Extn, Najafgarh Nai Sarak, Old Roshanpura, New Roshan Pura Extn, Najafgarh, Delhi, 110043, India",0,0,8.82737267650587,11.158335654957924,0.1542394503301597,0.23995261544412855,0.9473684210526316
144,10.0,28.6109848,76.9804116999999,INDIAN TASTE VEG PIZZA STORE,1,"RZ- 1624 A, Najafgarh Thana Road, Najafgarh, Delhi","RZ- 1624 A, Najafgarh Thana Rd, Najafgarh, Delhi, 110043, India",0,0,8.00142612334248,11.749682295016942,0.1399873337633116,0.25288008925395,0.9999999999999998
145,8.2,28.61007,76.9817769999999,Foodie Step,0,"Beside Canra Bank, Najafgarh Thana Road, Najafgarh","Beside Canra Bank, Najafgarh Thana Rd, Prem Nagar, Najafgarh, Delhi 110043, India",0,0,8.168985672550379,11.756474910030349,0.1428786567164169,0.25302858312664245,0.5263157894736838
146,8.2,28.6102119999999,76.9818885,Bunny's Bite N Sip,0,"Shop No. 1631, Opposite Canara Bank, Thana Road, Najafgarh, New Delhi","Shop No. 1631, Opposite Canara Bank, Thana Road, Najafgarh, New Delhi, Delhi 110043, India",0,0,8.167288781157227,11.77557036720293,0.14284937601557268,0.25344603036615065,0.5263157894736838
147,6.6,28.6094939,76.9853028999999,Grover Burfee & Cakes (Cakes In Dwarka),0,"301/2, Nawada Bazar, Gaushala Road, Chhawala Bus Stand, Najafgarh, Delhi","301/2, Nawada Bazar, Gaushala Road, Chhawala Bus Stand, Najafgarh, Najafgarh, Delhi, 110043, India",1,0,8.474923512429518,11.926853990144902,0.148157765563675,0.2567532531369473,0.10526315789473673
148,7.8,28.6063213,76.9862584,Domino's Pizza,1,"Ground and First Floor, Plot No C-24/7 old plot no.7 Roshanpura, Najafgarh, Delhi","Ground and First Floor, Plot No C-24/7 old plot no.7 Roshanpura, Najafgarh, Old Roshanpura Extension, Todarmal Colony, Najafgarh, Delhi, 110043, India",2,0,8.771939369254286,11.71495353162212,0.15328292117750494,0.25212088111980174,0.4210526315789471
149,6.8,28.6126535,76.9910748,Bikaner Sweets,1,"b 64a, Tehsil Rd, Naya Bazar, Najafgarh, à¤¨à¤ˆ à¤¦à¤¿à¤²à¥à¤²à¥€, Tehsil Road, Naya Bazar, Najafgarh, à¤¨à¤ˆ à¤¦à¤¿à¤²à¥à¤²à¥€","b 64a, Tehsil Rd, Naya Bazar, Najafgarh, à¤¨à¤ˆ à¤¦à¤¿à¤²à¥à¤²à¥€, Tehsil Rd, Naya Bazar, Najafgarh, à¤¨à¤ˆ à¤¦à¤¿à¤²à¥à¤²à¥€, Delhi 110043, India",0,0,8.684545721175564,12.556760705360801,0.15177490052550321,0.2705236916783271,0.1578947368421051
150,8.2,28.6106998,76.9818224,Captain Food Factory,0,"1620-B, Opp. HDFC Bank, Old Telephone Exchange Wali Gali, Najafgarh Thana Road, Najafgarh, Delhi","1620-B, Opp. HDFC Bank, Old Telephone Exchange Wali Gali, Najafgarh Thana Rd, Najafgarh, Delhi, 110043, India",0,0,8.12769819608289,11.813186332998823,0.14216622087524539,0.2542683558512655,0.5263157894736838
151,9.6,28.6112699999999,76.982957,Shri Giriraj Sales & Co0ectioners,0,"Near Shiv Mandir, Nawada Bazar, Nawada Bazar, Najafgarh, Delhi","Near Shiv Mandir, Nawada Bazar, Najafgarh, Delhi, 110043, India",2,0,8.172517670544787,11.932656267731584,0.14293960308992903,0.2568800971679401,0.894736842105263
152,8.8,28.6095857,76.9833113999999,The Madras Cafe,1,"1665-T 11, Najafgarh Thana Road, Najafgarh, Delhi","1665-T 11, Najafgarh Thana Rd, Najafgarh, Delhi, 110043, India",1,0,8.318702997290824,11.810635129254727,0.1454621032555483,0.2542125837924574,0.6842105263157896
153,9.2,28.6128349,76.9848523,Bansi Samosa,0,"16, Main Market Road, Jatav Mohalla, Najafgarh, Delhi","16, Main Market Rd, Jatav Mohalla, Najafgarh, Delhi, 110043, India",0,0,8.203921104197152,12.184618460324005,0.14348148488034101,0.2623882617961836,0.7894736842105259
154,8.2,28.614661,76.984247,Aman The Punjab Rasoi,0,"1249, Main Road, Krishna Mandir Wali Gali, Najafgarh, Delhi","1249, Main Road, Krishna Mandir Wali Gali, Jatav Mohalla, Najafgarh, Delhi, 110043, India",0,0,8.028816323768488,12.303139617603122,0.14045996522810275,0.26497926181688647,0.5263157894736838
155,10.0,28.6127701,76.9857571999999,Billu De Mashoor pakode,1,"c-1677 shop no1 chhawala stand, Najafgarh Thana Road, Najafgarh","c-1677 shop no1 chhawala stand, Najafgarh Thana Rd, Jatav Mohalla, Najafgarh, Delhi, 110043, India",0,0,8.276542188656988,12.235449732000928,0.14473459763560154,0.2634994880868373,0.9999999999999998
156,9.0,28.613454,76.98554,BRYC Cafe And Restaurant- Best Restaurant In Najafgarh- Best Cafe In Najafgarh,1,"shop - 41 ,property no 1471 & 1472 , Kh no 52 , Doctor's lane , saini mohalla, Najafgarh, New Delhi","shop - 41 ,property no 1471 & 1472 , Kh no 52 , Doctor's lane , saini mohalla, Jatav Mohalla, Najafgarh, New Delhi, Delhi 110043, India",1,0,8.211675881804432,12.280428629403495,0.14361529740608575,0.26448277517900426,0.7368421052631577
157,9.2,28.6124857,76.9859699,Saini Chacha Pakode Wala,0,"Near delhi gate Old bus stand, Shivaji Road, Najafgarh, New Delhi","Near delhi gate Old bus stand, Shivaji Rd, New Bhagat Singh Market, Dharampura, Najafgarh, New Delhi, Delhi 110043, India",1,0,8.312716221362185,12.224369389749599,0.14535879847381905,0.26325725988335313,0.7894736842105259
158,9.0,28.6087208,76.9856408999999,Sher - A - Hind,0,"Gaushala Road, Block E, New Roshanpura, Najafgarh, Delhi","Gaushala Rd, Block E, New Roshanpura, Najafgarh, Delhi, 110043, India",0,0,8.555204692943155,11.881769777731861,0.14954305706761348,0.25576766374533794,0.7368421052631577
159,8.2,28.6126324,76.9907173,Bake Town,0,"Najafgarh Extension, Najafgarh, Delhi","Najafgarh Extension, Najafgarh, Delhi, 110043, India",2,0,8.659169788230626,12.532683286586973,0.1513370262430347,0.2699973333978849,0.5263157894736838
160,8.2,28.611921,76.9913359,Swad Kitchen Se,1,"Purana Kakrola Road, Near Tehsil Choraha, Tuda Mandi, Najafgarh, New Delhi","Purana Kakrola Road, Near Tehsil Choraha, Tuda Mandi, Najafgarh, Roshan Garden, Block A1, Masudabad, Najafgarh, New Delhi, Delhi 110043, India",0,0,8.756163522362245,12.510360544398115,0.1530107011313228,0.26950933423553053,0.5263157894736838
161,9.0,28.6138615,77.0002997999999,WOW Foodz,0,"baba mandir, indira Park, Najafgarh nr sai, Najafgarh, New Delhi","indira Park, Najafgarh nr sai, baba mandir, Indra Park, Masudabad, Najafgarh, New Delhi, Delhi 110043, India",0,0,9.292252524419963,13.234821703026777,0.16226118219243865,0.2853468346455611,0.7368421052631577
162,9.0,28.609659,76.9921995999999,Teddy's Food Junction,0,"Plot No. 12, Dharampura Ext., Opp. Rosewood Hospital, Old Kakrola Road, Najafgarh, Delhi","Plot No. 12, Dharampura Ext., Opp. Rosewood Hospital, Old Kakrola Road, Najafgarh, Dharampura, Najafgarh, Delhi, 110043, India",0,0,8.98164285017007,12.370651620194284,0.15690145853084667,0.26645514683292165,0.7368421052631577
163,9.6,28.6137999999999,77.0006935,Shri Balaji,0,"Sai Baba Mandir, Deenpur, Old Dharampura, Shyam Vihar - II, Najafgarh, Delhi","Sai Baba Mandir, Deenpur, Old Dharampura, Shyam Vihar - II, Najafgarh, Delhi, 110043, India",0,0,9.326212285102661,13.254087901847578,0.16284717467098145,0.28576801448120853,0.894736842105263
164,9.6,28.6203696999999,77.0044791,Soumya Fisheris,0,"Nangli Vihar Extension Part 1, Indra Park, Block E, Nangli Sakrawati, New Delhi","Nangli Vihar Extension Part 1, Indra Park, Block E, Nangli Sakrawati, New Delhi, Delhi 110043, India",0,0,9.144476273849687,14.051944261750693,0.15971122984882413,0.30321001296050587,0.894736842105263
165,8.4,28.6087957,76.9864506,Sharma Punjabi Dha44ba,0,"Block E, New Roshanpura, Najafgarh, Delhi","Block E, New Roshanpura, Najafgarh, Delhi, 110043, India",0,0,8.610755324595296,11.93862330722397,0.1505016107108681,0.2570105430714668,0.5789473684210524
166,8.4,28.630124,77.0047369999999,Pizza World,0,"Jai Vihar, Baprola","Jai Vihar, Baprola, Delhi, 110043, India",0,0,8.471598066128426,14.90245817807505,0.14810038334186118,0.3218031622799548,0.5789473684210524
167,8.8,28.6345934,77.0114743,Haryana Sweet,0,Haryana sweets Prashanth Nagar Gali Number 1,"Haryana sweets Prashanth Nagar Gali Number 1, Nangli Vihar Extension, Baprola, Delhi, 110043, India",0,0,8.660826206258442,15.70447790502065,0.1513656085559282,0.3393361764423666,0.6842105263157896
168,8.8,28.633253,77.018362,AKANSHA FOODS,0,"Nangli Vihar Extension, Baprola","Nangli Vihar Extension, Baprola, Delhi, 110043, India",0,0,9.273649579588252,16.01886114487569,0.1619401791720704,0.346208932325561,0.6842105263157896
169,9.2,28.6305576999999,77.0184292,Chole Bhature Wala,0,"Nangli Vihar Extension, Baprola, Delhi","Nangli Vihar Extension, Baprola, Delhi, 110043, India",0,0,9.469983608099241,15.792487674276414,0.16532802000712254,0.3412601646922174,0.7894736842105259
170,8.4,28.648351,77.0254274,Hari Om Rasoi,0,"Nangloi - Najafgarh Road, Kotla Vihar Phase 2, Tilangpur Kotla, New Delhi","Nangloi - Najafgarh Rd, Kotla Vihar Phase 2, Tilangpur Kotla, New Delhi, Delhi 110041, India",0,0,8.733291640974272,17.750459370006816,0.15261603549781902,0.3840635326362718,0.5789473684210524
171,8.4,28.6621331,77.0496562,Jai Durga Corner,0,"A-28, Nangloi - Najafgarh Rd, Rishal Garden Najafgarh, Shiv Ram Park Extention II, Nangloi - Najafgarh Road, Rishal Garden Najafgarh, Shiv Ram Park Extention II, Nangloi, Delhi","A-28, Nangloi - Najafgarh Rd, Rishal Garden Najafgarh, Shiv Ram Park Extention II, Nangloi - Najafgarh Rd, Rishal Garden Najafgarh, Shiv Ram Park Extention II, Nangloi, Delhi, 110041, India",0,0,9.576293495074928,20.438368663442922,0.16716244972364952,0.44282412184094355,0.5789473684210524
172,9.0,28.6606254,77.0498456,Anmol Chowmein Corner,0,"Rishal Garden, Nilothi, Delhi","Rishal Garden, Nilothi, Delhi, 110041, India",0,0,9.697507891947703,20.32120583271324,0.16925406413525323,0.4402628163000998,0.7368421052631577
173,9.2,28.663622,77.051588,Veer Ji Da Dhaba,0,"H-1, Nangloi - Najafgarh Road, Kunwar Singh Nagar, New Delhi","H-1, Nangloi - Najafgarh Rd, Adhyapak Nagar, Kunwar Singh Nagar, Nangloi, New Delhi, Delhi 110041, India",0,0,9.61582933196202,20.686029688948416,0.16784466015690894,0.44823825832883546,0.7894736842105259
174,8.8,28.6650232,77.0531673999999,Pizza Choice,1,"A-72/ kunwar singh nagar kataria complex nilothi more nagloi,new","A-72/ kunwar singh nagar kataria complex nilothi more nagloi,new, Kunwar Singh Nagar, Nangloi, Delhi, 110041, India",0,0,9.635103914270525,20.904240723782852,0.1681772526143579,0.45300858633400454,0.6842105263157896
175,9.2,28.6654592,77.0532657999999,Pizza Choice,1,"Kunwar Singh Nagar Bus Stop, Nangloi - Najafgarh Road, Nangloi, New Delhi","Kunwar Singh Nagar Bus Stop, Nangloi - Najafgarh Rd, Block D, Kunwar Singh Nagar, Nangloi, New Delhi, Delhi 110041, India",0,0,9.61156286464824,20.94766117093669,0.16777104015177452,0.45395780402692315,0.7894736842105259
176,8.0,28.664949,77.0534359999999,Yadav Hotel,0,"Shani Bazaar Road, Shiv Ram Park Extn, Sihvram Park, Nangloi, Delhi","Shani Bazaar Rd, Shiv Ram Park Extn, Sihvram Park, Nangloi, Delhi, 110041, India",1,0,9.660554699491968,20.914622058626485,0.16861641850990475,0.453235533483461,0.4736842105263157
177,9.0,28.6696613,77.0568756,Sardar ji chawla chicken,0,"Nangloi najafgarh main road opposite shamshan ghat, New Delhi","Nangloi najafgarh main road opposite shamshan ghat, Aman Puri, Block B, Kamruddin Nagar, New Delhi, Delhi 110041, India",0,0,9.584693223667005,21.531884425450144,0.16730739119784738,0.46672955296432733,0.7368421052631577
178,8.2,28.6745379999999,77.0608419999999,Krishna Punjabi Rasoi,0,"10/10, Nangloi - Najafgarh Road, Yadav Park Extension, Kamruddin Nagar, Delhi","10/10, Nangloi - Najafgarh Rd, Chaju Ram Colony, Yadav Park Extension, Kamruddin Nagar, Delhi, 110041, India",0,0,9.536761880208429,22.196005466057525,0.16648031214344505,0.481247953471594,0.5263157894736838
179,8.6,28.6797335,77.0606126999999,Khanabedosh,1,"H.No. 77A, Extn 2B, Nangloi, Delhi","H.No. 77A, Extn 2B, Nangloi, Block 2B, Nangloi Extension, Nangloi, Delhi, 110041, India",1,0,9.15091735198521,22.626114395563295,0.15982237383998443,0.49065059744535744,0.631578947368421
180,8.4,28.6824407,77.0581869,Dhaba NH10,1,"Block D, JJ Colony No 2, Nangloi, Delhi","Block D, JJ Colony No 2, Nangloi, Delhi, 110041, India",0,0,8.776558708864018,22.706622562510578,0.1533626301687558,0.49241059259741216,0.5789473684210524
181,9.6,28.6825021,77.0586136,Good Food Kitchen,1,"Main Rohtak road, Near metro pillar no. 413, Block D, JJ Colony No 2, Nangloi, New Delhi","Main Rohtak road, Near metro pillar no. 413, Block D, JJ Colony No 2, Nangloi, Block D, JJ Colony No 2, Nangloi, New Delhi, Delhi 110041, India",0,0,8.804268265115336,22.738444613889037,0.15384077227637385,0.49310625687941223,0.894736842105263
182,8.0,28.679732,77.061207,FOOD GALLERY,1,"24 Extension 2B, Nangloi Delhi, New Delhi","24 Extension 2B, Nangloi Delhi, Block 2B, Nangloi Extension, Nangloi, New Delhi, Delhi 110041, India",0,0,9.19568441042076,22.66299345841743,0.1605948515901908,0.49145681343929626,0.4736842105263157
183,9.6,28.675903,77.062448,BALAJI RASOI,1,"A-18, Naresh Park Industrial Area, Near Vijya Bank, Nangloi","A-18, Naresh Park Industrial Area, Near Vijya Bank, Pocket A, Naresh Park, Nangloi, Delhi 110041, India",0,0,9.560605199022769,22.412767096055536,0.16689174041054172,0.4859865959275549,0.894736842105263
184,9.2,28.682161,77.0603369999999,D F Restaurant,0,"House No-31, Ground Floor, Choudhary Wazir Singh Complex Extension, Near Lokesh, Nangloi","House No-31, Ground Floor, Choudhary Wazir Singh Complex Extension, Near Lokesh, Block 4 ABC, Nangloi, Delhi 110041, India",0,0,8.957977304633909,22.81658259677862,0.15649309782965162,0.49481443725777124,0.7894736842105259
185,8.6,28.683784,77.0650711999999,The Family Pizza,0,"Kirari Extension 2, JJ Colony No 1, Nangloi, Delhi","Kirari Extension 2, JJ Colony No 1, Nangloi, Delhi, 110041, India",0,0,9.198595815178562,23.25019825638267,0.16064508932025037,0.5042937421245417,0.631578947368421
186,7.6,28.6813498,77.0674076999999,Del 41,1,"530 rohilla complax near bank of Maharastra Najafghad Road, Nangloi Jat, Nangloi, Delhi","530 rohilla complax near bank of Maharastra Najafghad Road, Nangloi Jat, Nangloi, Nangloi Jat, Nangloi, Delhi, 110041, India",0,0,9.546875726085412,23.187487610973132,0.16665483155977512,0.5029228199425066,0.36842105263157876
187,7.4,28.6824084,77.068417,Wah Ji Wah,1,"Shop No-538, Rohtak Road, Punjabi Basti, Nangloi, Delhi","Shop No-538, Rohtak Road, Punjabi Basti, Nangloi, Block X, JJ Colony No 3, Nangloi, Delhi, 110041, India",0,0,9.547617147233476,23.340879844729876,0.16666762514864217,0.5062761392144695,0.3157894736842106
188,7.4,28.690486,77.0710302999999,Shagun Restaurant,1,"F1/13-14, DDA Market, Sultanpuri, Delhi","F1/13-14, DDA Market, Sultanpuri, Raj Park, Sultanpuri, Delhi, 110086, India",0,0,9.17093047600879,24.194497029957464,0.16016771020025908,0.5249371293310985,0.3157894736842106
189,8.8,28.6913935,77.0721504999999,Apple pizza,1,"B-52, Nangloi Sultanpuri Road, Sultanpuri, Delhi","B-52, Nangloi Sultanpuri Rd, Sher Singh Park, Sultanpuri, Delhi, 110086, India",0,0,9.190727261340697,24.341867449200656,0.16050931352933479,0.5281588052586367,0.6842105263157896
190,8.2,28.6832051,77.0638029,Aftab Chicken Corner,0,"Kirari Extension 2, JJ Colony No 1, Nangloi, New Delhi","Kirari Extension 2, JJ Colony No 1, Nangloi, New Delhi, Delhi 110041, India",0,0,9.144356984588017,23.121707396931097,0.15970917145357327,0.5014847936874696,0.5263157894736838
191,10.0,28.6803433,77.063675,Khatu Shyam Tiffin Center,1,"Tyagi Vihar, Block 2A, Nangloi Extension, Nangloi, Delhi","Tyagi Vihar, Block 2A, Nangloi Extension, Nangloi, Delhi, 110041, India",0,0,9.337780073672505,22.868963524876374,0.16304678258808772,0.49595954070513387,0.9999999999999998
192,8.0,28.680125,77.064182,khandelwal Tiffin Service,1,"Tyagi Vihar, Block 2A, Nangloi Extension, Nangloi, Delhi","Tyagi Vihar, Block 2A, Nangloi Extension, Nangloi, Tyagi Vihar, Block 2A, Nangloi Extension, Nangloi, Delhi, 110041, India",0,0,9.391367942336208,22.881862852359994,0.16397146778453162,0.49624153388292913,0.4736842105263157
193,8.2,28.6899971,77.0613592,Zahier Ali Chicken Corner,0,"Shop No. 12, Chaudhary Nihal Singh Market, Kirari More, New Delhi","Shop No. 12, Chaudhary Nihal Singh Market, Kirari More, Prem Nagar II, Sultanpuri, New Delhi, Delhi 110086, India",0,0,8.478873230258666,23.550507430959392,0.14822591989968084,0.5108588237977921,0.5263157894736838
194,8.8,28.6828594,77.0681731,Pubg CAFE,0,"Block X, JJ Colony No 3, Nangloi, Delhi","Block X, JJ Colony No 3, Nangloi, Delhi, 110041, India",0,0,9.4972916329624,23.36426693253579,0.16579923349190492,0.506787406117193,0.6842105263157896
195,10.0,28.679415,77.0655952,Banke Bihari Sweets,1,"near banke bihari, Nangloi, Delhi","near banke bihari, Block G, Nangloi Extension, Nangloi, Delhi, 110041, India",0,0,9.547940260200734,22.90913619041844,0.16667320062281296,0.4968377583975755,0.9999999999999998
196,8.6,28.6780307,77.0646802999999,Gyan Agency Cake & Pizza,0,"Krishna Mandir, Shop no10, near, Najafgarh Road, Nangloi, Delhi","Shop no10, near, Krishna Mandir, Najafgarh Rd, Ahir Mohalla, Nangloi Jat, Nangloi, Delhi, 110041, India",1,0,9.577401193087779,22.733762953114695,0.16718156360110265,0.49300391073766237,0.631578947368421
197,8.6,28.6947480999999,77.0682968999999,Naeem Eggs Store,0,"Block H 1, Ratan Vihar, Sultanpuri, Delhi","Block H 1, Ratan Vihar, Sultanpuri, Delhi, 110086, India",0,0,8.663168627961005,24.38886237924957,0.15140602820175855,0.5291861649935987,0.631578947368421
198,9.0,28.6950707,77.0682415999999,Radha Ki Rasoi,0,"Block H 1, Ratan Vihar, Sultanpuri, Delhi","Block H 1, Ratan Vihar, Sultanpuri, Delhi, 110086, India",0,0,8.636127802605973,24.413013351899313,0.15093942537673596,0.5297141312409086,0.7368421052631577
199,8.2,28.691985,77.0676397,Khem Chat Bhandar,0,"F-, 2/242, Shani Bazar Road, Ratan Vihar, Sultanpuri, Sultanpuri","F-, 2/242, Shani Bazar Rd, Block H 1, Ratan Vihar, Sultanpuri, Delhi 110086, India",0,0,8.809800475636361,24.111598276366607,0.1539362333070132,0.5231248733828686,0.5263157894736838
200,8.2,28.6965656,77.0766012999999,Chunnu Munnu Ke Burger,0,"Outside Janmashtmi Park, B-Block, State Bank Road, Sultanpuri, New Delhi","Outside Janmashtmi Park, B-Block, State Bank Road, Sultanpuri, New Delhi, Delhi 110086, India",0,0,9.158260482399868,25.06137347542054,0.15994908318968076,0.5438879811427475,0.5263157894736838
201,8.4,28.6956575,77.0654919999999,BAGHEL FAST FOOD CENTER,0,"Kirari Suleman Nagar, Balbir Nagar, Kirari Suleman Nagar Village, Kirari Suleman Nagar, Delhi","Kirari Suleman Nagar, Balbir Nagar, Kirari Suleman Nagar Village, Kirari Suleman Nagar, Delhi, 110086, India",0,0,8.387882849661695,24.29201078521123,0.14665583584791853,0.5270688849406586,0.5789473684210524
202,8.6,28.6888994,77.0765617,Som Garg,0,"HN-202, NEAR SHIV MANDIR, Sultanpur Majra Village, Mangolpuri, Delhi","HN-202, NEAR SHIV MANDIR, Sultanpur Majra Village, Mangolpuri, Delhi, 110083, India",0,0,9.69914918552422,24.403210973080903,0.16928238546825397,0.52949984069309,0.631578947368421
203,8.6,28.6999519,77.0728881,Narang Caterers & MEENU SWEETS,1,"D3/61, Block D3, Block D, Sultanpuri, Delhi","D3/61, Block D3, Block D, Sultanpuri, Delhi, 110086, India",0,0,8.63901425165672,25.11983039477026,0.15098923248371882,0.5451659122963276,0.631578947368421
204,8.4,28.686848,77.0728819999999,The Food Gallery,0,"19A,Rajendra Park, Friends Enclave, Nangloi, Delhi","19A,Rajendra Park, Sector 1, Friends Enclave, Nangloi, Delhi, 110041, India",0,0,9.568173251269927,23.99863115717926,0.16702233089778015,0.520655290610707,0.5789473684210524
205,8.8,28.70156,77.0751389999999,Gulati Bhojnalya,0,"RZ-5/5, Main Nangloi Road, Idgah Market, Sultanpuri","RZ-5/5, Main Nangloi Road, Idgah Market, Block P4, Aman Vihar, Sultanpuri, Delhi 110086, India",0,0,8.694077418788927,25.397520876462607,0.15193937468541743,0.5512365250065921,0.6842105263157896
206,6.6,28.702262,77.074164,Jain Sweets & Caterers,1,"Street Number 2, Block P4, Aman Vihar, Sultanpuri, New Delhi","Street Number 2, Block P4, Aman Vihar, Sultanpuri, New Delhi, Delhi 110086, India",0,0,8.57101471174582,25.396864631849542,0.1498158667670264,0.5512221787932656,0.10526315789473673
207,9.0,28.695453,77.0905609999999,Sunny Da Dhaba,0,"Gurudrawa, B-8, Block N, Mangolpuri, Delhi","Gurudrawa, B-8, Block N, Mangolpuri, Delhi, 110083, India",0,0,10.286169521961792,25.835388833003083,0.17941171191192715,0.5608087896596425,0.7368421052631577
208,9.0,28.706273,77.0809089999999,Saini Fast Food,0,"F-35, Krishan Vihar, Delhi","F-35, Block V, Krishan Vihar, Delhi, 110086, India",0,0,8.79331780682753,26.159876933141966,0.15365181669882408,0.5679024486609441,0.7368421052631577
209,9.0,28.7063253,77.0843036,Aagarwal Shudh Bhojnalay,0,"Qutab Garh Road, Block K, Krishan Vihar, Delhi","Qutab Garh Road, Block K, Krishan Vihar, Delhi, 110086, India",0,0,9.044682460751204,26.375688479286033,0.15798923821209837,0.5726203212616171,0.7368421052631577
210,6.4,28.703062,77.088909,amjad delhi darbaar,1,"Kanjhawala Road, Block Y, Mangolpur Khurd, Mangolpuri, Delhi","Kanjhawala Rd, Block Y, Mangolpur Khurd, Mangolpuri, Delhi, 110083, India",0,0,9.622233320086686,26.383301881116985,0.16795516414157463,0.5727867584172649,0.05263157894736836
211,9.0,28.7101919999999,77.0964659999999,Rolex Momos King,0,"Shop No. 127, 7, 15,, Sector 4, Pocket G, Sector 4, Rohini, Delhi","Shop No. 127, 7, 15,, Vijay Vihar Phase II, Sector 4, Pocket G, Sector 4, Rohini, Delhi, 110085, India",0,0,9.684273495427098,27.4635973930364,0.1690256980730896,0.5964031806494299,0.7368421052631577
212,8.4,28.7080938,77.09472,Laxmi Mathi Wala,0,"D-37, Vijay Vihar Phase II, Sector 4, Rohini, Delhi","D-37, Vijay Vihar Phase II, Sector 4, Rohini, Delhi, 110085, India",0,0,9.701922595945012,27.175444044039647,0.16933024203772987,0.5901038384023917,0.5789473684210524
213,8.4,28.707482,77.089624,Burger Junction,0,"U-12, Main market, Budh vihar, Phase-1, Delhi","U-12, Main market, Budh vihar, Phase-1, Gulab Park, Budh Vihar Phase I, Budh Vihar, Delhi, 110086, India",0,0,9.362407898800733,26.80585549760646,0.16347174789991223,0.5820242351193694,0.5789473684210524
214,9.8,28.7120278,77.0971627999999,Noni Momos Shop,0,"K-119,Vijay Viahr,FH-1, Vijay vihar Phase I, Rohini, Delhi","K-119,Vijay Viahr,FH-1, Vijay vihar Phase I, Phase 1, Pocket J, Sector 4, Rohini, Delhi, 110085, India",0,0,9.60640303781344,27.663988388482377,0.16768200478594766,0.6007839434201346,0.9473684210526316
215,9.4,28.7076624,77.095297,Laxmi Mathi Wale,0,"Vijay Vihar Phase II, Gopal Vihar, Sector 4, Rohini, Delhi","Vijay Vihar Phase II, Gopal Vihar, Sector 4, Rohini, Delhi, 110085, India",0,0,9.775881493879817,27.17447011819684,0.17060643942663517,0.5900825473355745,0.8421052631578949
216,7.6,28.705778,77.088444,Ravi Chaat Bhandar,0,"Main Budh Vihar Market,Rohini, J-20, Qutab Garh Road, Budh Vihar Phase I, Budh Vihar, Delhi","Main Budh Vihar Market,Rohini, J-20, Qutab Garh Road, Budh Vihar Phase I, Budh Vihar, Delhi, 110086, India",1,0,9.394620976171188,26.586648680714703,0.16402760049340298,0.5772321382470178,0.36842105263157876
217,7.8,28.7240927,77.1133955999999,Berco's,1,"GA-06, Metro Walk Mall, Sec 10, Rohini, Delhi","GA-06, Metro Walk Mall, Sec 10, Rohini, Swarn Jayanti Park, Sector 10, Rohini, Delhi, 110085, India",0,0,9.970257102458941,29.706376450652403,0.17396048675646728,0.6454327439621651,0.4210526315789471
218,7.8,28.7197549,77.1096869999999,Cafe Coffee Day,1,"FFF Crown Plaza, Plot Number 3B1, Bhagawan Mahavir Marg, Sector 10, Rohini, New Delhi","FFF Crown Plaza, Plot Number 3B1, Bhagawan Mahavir Marg, Swarn Jayanti Park, Sector 10, Rohini, New Delhi, Delhi 110085, India",1,0,9.999310267274081,29.104528505259758,0.1744618134948565,0.6322757003188939,0.4210526315789471
219,8.6,28.7197879,77.1094054999999,Mosaic - Crowne Plaza,0,"Crowne Plaza, Twin District Centre, Sector 10, Rohini, New Delhi","Crowne Plaza, Twin District Centre, Sector 10, Rohini, Swarn Jayanti Park, Sector 10, Rohini, New Delhi, Delhi 110085, India",0,0,9.975818402881591,29.08982696534959,0.17405644974775686,0.6319543088383678,0.631578947368421
220,7.6,28.7239511999999,77.1138529999999,Pind Balluchi Restaurant & Bar,1,"FA-9,10,11, Unitech Metro Walk, Rammurti Passi Marg, Sector 10, Rohini, New Delhi","FA-9,10,11, Unitech Metro Walk, Rammurti Passi Marg, Swarn Jayanti Park, Sector 10, Rohini, New Delhi, Delhi 110085, India",0,0,10.014661381082316,29.722747783706026,0.1747267045614612,0.6457906389174175,0.36842105263157876
221,7.6,28.7236699999999,77.1135259999999,Domino's Pizza,1,"Ground Floor, Shop No.GA-9, Metro Walk, Sector-10, Rohini, New Delhi","Ground Floor, Shop No.GA-9, Metro Walk, Sector-10, Rohini, Swarn Jayanti Park, Sector 10, Rohini, New Delhi, Delhi 110085, India",2,0,10.010038890570147,29.67834293801491,0.17464694119982932,0.6448199012133126,0.36842105263157876
222,8.4,28.7239147,77.1134582,Yo! China,0,"Sector 12, Rohini, Delhi","Sector 12, Rohini, Swarn Jayanti Park, Sector 10, Rohini, Delhi, 110085, India",0,0,9.987586959087452,29.69505004200157,0.17425952200979006,0.645185136482433,0.5789473684210524
223,9.0,28.7237922,77.1138091999999,4 In 1 Restaurant & Bar,1,"GA 11-12, Ground Floor, Metro Walk, Rammurti Passi Marg, Sector 10, Rohini, Delhi","GA 11-12, Ground Floor, Metro Walk, Rammurti Passi Marg, Swarn Jayanti Park, Sector 10, Rohini, Delhi, 110085, India",1,0,10.022649071076403,29.70642302031157,0.17486453610571737,0.6454337620250209,0.7368421052631577
224,8.0,28.7237207,77.1139216,CafÃ© Coffee Day - Unitech Amusement Park,1,"Unitech Amusement Park, Rohini, Near Rithala Metro Station, Rohini, Delhi","Unitech Amusement Park, Rohini, Near Rithala Metro Station, Swarn Jayanti Park, Sector 10, Rohini, Delhi, 110085, India",1,0,10.036166156075323,29.707304963436314,0.1750977800974875,0.6454530422506527,0.4736842105263157
225,8.0,28.7160674,77.11449,Haldiram's,1,"Metro, D Mall Near Rohini West Plot No. 1 B/ 5, Twin District Center, Bhagawan Mahavir Marg, Sector 10, Rohini, New Delhi","D Mall Near Rohini West Plot No. 1 B/ 5, Twin District Center, Metro, Bhagawan Mahavir Marg, Swarn Jayanti Park, Sector 10, Rohini, New Delhi, Delhi 110085, India",0,0,10.621773954909598,29.088167704743256,0.1852027325056978,0.6319180356162355,0.4736842105263157
226,8.4,28.7165778,77.1137107,Mcdonald's India,1,"Plot No. 1B5, Twin District Center D-Mall, Sector 10, Rohini, New Delhi","Plot No. 1B5, Twin District Center D-Mall, Swarn Jayanti Park, Sector 10, Rohini, New Delhi, Delhi 110085, India",0,0,10.527012658022322,29.083302539956886,0.18356757942697796,0.6318116778793419,0.5789473684210524
227,8.4,28.7164008,77.1139345999999,Burger King,1,"UNIT NO. 21, 22, 23 & 24, Ground Floor, D Mall Twin, District Centre, Sector 10, Rohini, New Delhi","UNIT NO. 21, 22, 23 & 24, Ground Floor, D Mall Twin, District Centre, Sector 10, Rohini, New Delhi, Delhi 110082, India",0,0,10.556391925450722,29.08210411494879,0.18407453322735945,0.6317854790192222,0.5789473684210524
228,7.6,28.7096335,77.1063219,"Bikanervala - Indian Restaurant in Rohini, Delhi",1,"G-9, Ring Road Mall, Rohini Sector-3, Deepali Chowk, Near Kali Mata Mandir,, New Delhi","G-9, Ring Road Mall, Rohini Sector-3, Deepali Chowk, Near Kali Mata Mandir,, Pocket 7, Sector 6D, Rohini, New Delhi, Delhi 110085, India",1,0,10.464457517443366,28.029427048558876,0.18248815951539624,0.6087728257223385,0.36842105263157876
229,9.0,28.721064,77.115437,Pasta Hut,1,"Ground Floor, City Centre Mall, Sector 10, Rohini, New Delhi","Ground Floor, City Centre Mall, Sector 10, Rohini, Swarn Jayanti Park, Sector 10, Rohini, New Delhi, Delhi 110085, India",0,0,10.33848163298597,29.574432355773105,0.18031438327888058,0.6425483040831417,0.7368421052631577
230,9.4,28.7182368,77.1003161,Inder Pal Namkeen,0,"Rithala Village, Near Axis ATM, Vijay vihar Phase I, Rohini, Delhi","Rithala Village, Near Axis ATM, Vijay vihar Phase I, Rithala Extension, Rithala, Rohini, Delhi, 110085, India",1,0,9.402894206473368,28.391336539322207,0.16417035917699996,0.6166845565861544,0.8421052631578949
231,10.0,28.7222829,77.1049278,Shiv Hans Sweets,1,"199, Bhagawan Mahavir Marg, Pocket 20, Sector-24, Rohini, Delhi","199, Bhagawan Mahavir Marg, Pocket 20, Sector-24, Rohini, Delhi, 110085, India",0,0,9.462396289147467,29.024474409096854,0.16519709706336017,0.6305256316427422,0.9999999999999998
232,8.4,28.7176793,77.1043203,Sharma's Canteen & Tiffin Service.,0,"27, Pocket 13, Sector 5C, Rohini, Delhi","27, Pocket 13, Sector 5C, Rohini, Delhi, 110085, India",0,0,9.743306769410033,28.592924762902864,0.17004434643345273,0.6210914920520383,0.5789473684210524
233,6.8,28.725325,77.0969164,VASHINO RASOI,1,"e/20/226/shop, NO 2, 85, Pocket 20, Sector 3, Rohini, Delhi","e/20/226/shop, NO 2, 85, Pocket 20, Sector 3, Rohini, Delhi, 110085, India",0,0,8.6446608346385,28.78596994319768,0.15108666706777574,0.6253116673998249,0.1578947368421051
234,6.2,28.7156624999999,77.1054887,Aman Momos & Snacks,0,"C-9/167, Pocket 9, Sector 5, Rohini, Delhi","C-9/167, Pocket 9, Sector 5, Rohini, Delhi, 110085, India",1,0,9.974162446131027,28.493173723064867,0.1740278753944306,0.6189108269942653,0.0
235,9.6,28.7154328,77.1059231999999,Qureshi Halal Meat and Chicken Shop,0,"C-3/92, Sector 5, Rohini, Delhi","C-3/92, Pocket 3, Sector 5, Rohini, Delhi, 110085, India",0,0,10.023104098731212,28.50057802910908,0.1748723878331114,0.6190726930910387,0.894736842105263
236,9.0,28.7168691999999,77.1079726,Guru Maa Vaishno Punjabi Dhaba,0,"B9/74, Sector 5, Rohini, Delhi","B9/74, Sector 5, Rohini, Pocket 9, Sector 5B, Rohini, Delhi, 110085, India",0,0,10.075196834564222,28.75100690510719,0.1757712737725642,0.6245473377687619,0.7368421052631577
237,9.8,28.7312176,77.1134988,vashino chat centre,0,"Pocket 7, Sector 11B, Rohini, Delhi","Pocket 7, Sector 11B, Rohini, Delhi, 110085, India",0,0,9.472620323820884,30.322160494713465,0.16537351784190926,0.6588944457168429,0.9473684210526316
238,6.2,28.734366,77.113615,Pasta Hut,1,"Garg Trade Center Shop No. 71 & 67 Rohini, Sector 11, New Delhi","Garg Trade Center Shop No. 71 & 67 Rohini, Pocket 4, Sector 11, Rohini, New Delhi, Delhi 110085, India",0,0,9.258032154834842,30.598668879989,0.16167069277829943,0.6649392165275618,0.0
239,9.8,28.7249179,77.1129954,THE GOLDEN GATE,0,"G14, Metro Walk, Sector 10, Rohini, New Delhi","G14, Metro Walk, Swarn Jayanti Park, Sector 10, Rohini, New Delhi, Delhi 110085, India",0,0,9.881652807805217,29.75203882165095,0.17243157579861937,0.646430972522522,0.9473684210526316
240,8.0,28.724627,77.113028,Burger King,1,"UNIT NO. 21, 22, 23 & 24 ON GROUND FLOOR, D MALL , TWIN DISTRICT CENTER, Sector 10, Rohini","UNIT NO. 21, 22, 23 & 24 ON GROUND FLOOR, D MALL , TWIN DISTRICT CENTER, Swarn Jayanti Park, Sector 10, Rohini, Delhi, 110085, India",0,0,9.904736991182187,29.72918910777238,0.17282990480801955,0.6459314531920366,0.4736842105263157
241,8.0,28.7366660999999,77.1291542,Green Chick Chop,1,"F-3/4, B3 Rd, Sector, Pocket 3, Sector 15F, Rohini, Delhi","F-3/4, B3 Rd, Sector, Pocket 3, Sector 15F, Rohini, Delhi, 110089, India",0,0,10.262391313318204,31.762597917983992,0.17900140715305227,0.6903839576250494,0.4736842105263157
242,9.6,28.7408738,77.1211862999999,BladsBro's Food Corner,0,"H-4/93 Pocket, 5, Sector 16, Rohini, Delhi","H-4/93 Pocket, 5, Pocket 4, Sector 16, Rohini, Delhi, 110089, India",0,0,9.36529283228188,31.626518824627563,0.1635215288549915,0.6874091222302734,0.894736842105263
243,8.8,28.7391535,77.1241137,Variation momos and chaap,0,"I-1/50, Sector 16, Rohini, Delhi","I-1/50, Pocket 1, Sector 16, Rohini, Delhi, 110089, India",0,0,9.707254648305137,31.661593000589402,0.16942224924023705,0.6881758814547825,0.6842105263157896
244,8.0,28.7399072,77.1197868999999,Pinki Soup Corner,1,"91, H-3 Sector 16, Sector 16H, Rohini, Delhi","91, H-3 Sector 16, Sector 16H, Rohini, Delhi, 110089, India",0,0,9.328712286805406,31.456748702395274,0.16289031343770716,0.6836977646944817,0.4736842105263157
245,9.6,28.7408059,77.1230786,Abhhi's Flat,0,"i5, 68, Pocket 5, Sector 16, Rohini","i5, 68, Pocket 5, Sector 16, Rohini, Delhi, 110089, India",0,0,9.512281589664491,31.738489189534892,0.1660578926138929,0.6898569148814182,0.894736842105263
246,8.0,28.7410755,77.1229618999999,rohini tiffin service,1,"Pocket 5, Sector 16, Rohini, Delhi","Pocket 5, Sector 16, Rohini, Delhi, 110089, India",0,0,9.484391228269088,31.75428354870767,0.16557663062402636,0.6902021965668415,0.4736842105263157
247,8.8,28.7382897999999,77.1195116,Standard's Fast Food Corner,0,"G-5/100, Sector-16, Rohini, New Delhi","G-5/100, Sector-16, Rohini, G Block, Sector 16G, Rohini, New Delhi, Delhi 110089, India",0,0,9.422749167449583,31.30128206411109,0.1645129663556115,0.680299096707598,0.6842105263157896
248,8.6,28.7386384,77.1243573999999,Amritsari Kulcha,0,"Pocket D, Sector 16E, Rohini, New Delhi","Pocket D, Sector 16E, Rohini, New Delhi, Delhi 110089, India",0,0,9.762100383325203,31.632707714981287,0.17036863954322537,0.6875444180323289,0.631578947368421
249,8.8,28.7405262999999,77.1198653,Hunger Zone Rohini,0,"H-3/192, Giani Gurumukhi Musaphir Marg, G Block, Sector 16G, Rohini, Delhi","H-3/192, Giani Gurumukhi Musaphir Marg, G Block, Sector 16G, Rohini, Delhi, 110089, India",0,0,9.290690651108122,31.514578490297367,0.162234231295413,0.684961986079856,0.6842105263157896
250,8.2,28.7389542,77.1244506,Classic Caterer's,1,"29, I Block, Pocket 1, Sector 16, Rohini, Delhi","29, I Block, Pocket 1, Sector 16, Rohini, Delhi, 110089, India",0,0,9.746703018689946,31.66551720800941,0.17010295039570913,0.6882616688512263,0.5263157894736838
251,7.6,28.7387281,77.1246982999999,Madras Cafe,0,"I-1/18, Ram Krishna Marg, Pocket 5, Sector 16, Rohini, Delhi","I-1/18, Ram Krishna Marg, Pocket 5, Sector 16, Rohini, Delhi, 110089, India",1,0,9.781350543666186,31.661597500395814,0.1707008105875374,0.6881759798253922,0.36842105263157876
252,10.0,28.7402779,77.1193098,Royal Taste Family Restaurant,1,"H-3 Sector 16, Sector 16H, Rohini, New Delhi","H-3 Sector 16, Sector 16H, Rohini, New Delhi, Delhi 110089, India",0,0,9.266573211447248,31.4587587920516,0.16181807293743666,0.6837417074171206,0.9999999999999998
253,10.0,28.7403112,77.1192581999999,Royal Restaurant,1,"H-3 Sector 16, Sector 16H, Rohini, New Delhi","H-3 Sector 16, Sector 16H, Rohini, New Delhi, Delhi 110089, India",0,0,9.260334443261238,31.45839526109118,0.161710419904586,0.6837337602391854,0.9999999999999998
254,7.6,28.7506573,77.1418396999999,RR Bikaner Sweets,1,"Master Mohalla, Samay Pur, New Delhi","Master Mohalla, Samay Pur, New Delhi, Delhi 110042, India",0,0,10.223067929826597,33.74867099978486,0.1783228627082831,0.7338016521042294,0.36842105263157876
255,7.8,28.743967,77.1451646,Annjal sweets and restaurant,1,"96, samaypur main chowk, Delhi","96, samaypur main chowk, Samaipur, Samay Pur, Delhi, 110042, India",0,0,10.947403010922049,33.383473058062286,0.19082162303325967,0.7258180321642428,0.4210526315789471
256,8.6,28.7396039,77.1344512,Friends Mr Shawarma,0,"B7 Road, Pocket 9, Sector 18A, Rohini, Delhi","B7 Rd, Pocket 9, Sector 18A, Rohini, Delhi, 110089, India",0,0,10.451981344570573,32.34353794360452,0.18227287697754901,0.7030839316462713,0.631578947368421
257,9.8,28.748738,77.1437679999999,Yum Yum Pizza,1,"Shop No.1 Plot no 24 (opp. MCD Primary School) samay pur Delhi, New delhi","Shop No.1 Plot no 24 (opp. MCD Primary School) samay pur Delhi, Libaspur Extension, Libaspur, Samay Pur, New delhi, Delhi 110042, India",0,0,10.504071330948177,33.70454694078785,0.18317171547378797,0.7328370526993694,0.9473684210526316
258,8.2,28.7391464,77.1261071999999,Noah Frnz Fast Food,0,"D3/87, Pocket d 3, Pocket 3, Sector 16D, Rohini, Delhi","D3/87, Pocket d 3, Pocket 3, Sector 16D, Rohini, Delhi, 110089, India",1,0,9.857534152037625,31.7850646200813,0.17201539645611968,0.6908751039058958,0.5263157894736838
259,9.0,28.750886,77.143726,Sunjay Dhaba,0,"Shop no-197, Main Libaspur Road, Delhi","Shop no-197, Main Libaspur Rd, Libaspur Extension, Libaspur, Delhi, 110042, India",0,0,10.348561955289147,33.88562584534949,0.18048832422935257,0.7367956323845404,0.7368421052631577
260,8.6,28.7382316,77.1364907,Smoke,0,"11, B7 Road, Pocket 3, Sector 18B, Rohini, Delhi","11, B7 Rd, Pocket 3, Sector 18B, Rohini, Delhi, 110089, India",1,0,10.702550857751534,32.35312586240432,0.18659657794376272,0.7032935338673353,0.631578947368421
261,8.6,28.737219,77.1358149999999,Dwarika Namkeen & Mishti Special,0,"B-9, B7 Road, Sector 18, Rohini, Delhi","B-9, B7 Rd, Pocket 11, Sector 18, Rohini, Delhi, 110089, India",1,0,10.723610663421905,32.22447353039785,0.18695997531389488,0.7004810554664771,0.631578947368421
262,7.6,28.7543309,77.1529278,KANTAWALLA EQUIPMENTS,1,"Badli Industrial Area Phase 2, PLOT NO. 17, Delhi","Badli Industrial Area Phase 2, PLOT NO. 17, Block C, Swaroop Nagar, Bhalswa, Delhi, 110042, India",0,0,10.795534055562603,34.75290440473721,0.1882010490428745,0.7557552748392358,0.36842105263157876
263,7.0,28.7580097,77.1543631999999,Hotel Era,1,"a 247 8, Street Number 6, Bhalswa, Delhi","a 247 8, Street Number 6, Block D, Swaroop Nagar, Bhalswa, Delhi, 110033, India",0,0,10.642444310750431,35.15682908229522,0.18555940972626792,0.7645855028925321,0.21052631578947367
264,9.2,28.7554515,77.1461224999999,Pahalwan Dhaba,0,"66 Foota Road, rajiv nagar, Libaspur, Delhi","66 Foota Rd, rajiv nagar, Libaspur, Delhi, 110042, India",0,0,10.20478871673423,34.42520949993254,0.17800744583930425,0.7485915116375856,0.7894736842105259
265,9.6,28.760402,77.1491233999999,MATCHBOX GRILL,0,"Swaroop Nagar, Bhalswa, Delhi","Swaroop Nagar, Block J, Swaroop Nagar, Bhalswa, Delhi, 110042, India",0,0,10.079120493834164,35.0353285570557,0.1758389784552336,0.7619293706825704,0.894736842105263
266,9.0,28.7508639999999,77.146,Rama Sweets & Caterers,0,"Main Chowk, Libaspur","Main Chowk, Libaspur Extension, Libaspur, Samay Pur, Libaspur, Delhi 110042, India",0,0,10.520964438903379,34.02527042619747,0.18346321441258948,0.7398484131721604,0.7368421052631577
267,8.6,28.770105,77.17374,Raju Chow Mein Corner,0,"Nathu Pura Main Road, Budh Bazar, Nathu Pura, Burari, New Delhi","Nathu Pura Main Rd, Budh Bazar, Block B, Nathu Pura, Burari, New Delhi, Delhi 110084, India",0,0,11.240254265475631,37.39696208387899,0.195874916373682,0.8135572205733845,0.631578947368421
268,8.6,28.7713729999999,77.1731899999999,Choudhary restaurant,1,"D block Main budh bazaar road nathupura Delhi 110084, Nathupura delhi","D block Main budh bazaar road nathupura Delhi 110084, Block B, Nathu Pura, Burari, Nathupura delhi, Delhi 110084, India",0,0,11.109005028986887,37.47116433665419,0.19361014583788522,0.8151793616568029,0.631578947368421
269,8.6,28.5312618,76.9297108,Red Chillies,1,"Ghumanabad, à¤˜à¥à¤®à¥à¤®à¤¨à¤¹à¥‡à¥œà¤¾, à¤¨à¤ˆ à¤¦à¤¿à¤²à¥à¤²à¥€","Ghumanabad, à¤˜à¥à¤®à¥à¤®à¤¨à¤¹à¥‡à¥œà¤¾, à¤¨à¤ˆ à¤¦à¤¿à¤²à¥à¤²à¥€, à¤¦à¤¿à¤²à¥à¤²à¥€ 110043, India",0,0,9.849112877507885,1.7671635822345164,0.17187008319610353,0.03465148952322751,0.631578947368421
270,9.0,28.581077,76.97738,Delhi gravy momos corner,0,"Village papravat, Najafgarh, New Delhi","Village papravat, Najafgarh, New Delhi, Delhi 110043, India",0,0,9.896599171108786,9.001859764684896,0.17268948269493978,0.19280973222721604,0.7368421052631577
271,8.6,28.6008514,76.9885579,Payal Food Place,1,"Rz s 10 new roshan pura main gurgaon road opposite reliance fresh, Najafgarh, New Delhi","Rz s 10 new roshan pura main gurgaon road opposite reliance fresh, Roshan Vihar 1, Najafgarh, New Delhi, Delhi 110043, India",0,0,9.333077237315647,11.3902451417093,0.16296563281913956,0.24502240634702155,0.631578947368421
272,9.4,28.593408,76.9920169999999,BURGER PLACE,1,"Plot No- 618, near Radha Sawami Satsang, Gurugram Road, Deenpur, Najafgarh, New Delhi","Plot No- 618, near Radha Sawami Satsang, Gurugram Rd, Deenpur, Delhi Teachers Colony, Dindarpur, Najafgarh, New Delhi, Delhi 110043, India",0,0,10.121535838329374,10.968941649420243,0.17657087621744771,0.2358122587050065,0.8421052631578949
273,8.6,28.592254,76.992718,Bangali Sweets,0,"Triveni Hospital, Dhinpur, Najafgarh Road, Delhi Teachers Colony, Dindarpur, Najafgarh, Delhi","Triveni Hospital, Dhinpur, Najafgarh Rd, Delhi Teachers Colony, Dindarpur, Najafgarh, Delhi, 110043, India",0,0,10.256164980380266,10.91388632179863,0.1788939686965618,0.23460869000653803,0.631578947368421
274,9.2,28.603353,76.9875629999999,MAD'S KITCHEN,0,"Main, Nazafgarh - Gurgaon Road, New Roshanpura, Najafgarh, New Delhi","Main, Nazafgarh - Gurgaon Road, New Roshanpura, Najafgarh, New Delhi, Delhi 110043, India",0,0,9.080708388577749,11.542282617237097,0.15861088342733207,0.2483461091464503,0.7894736842105259
275,9.4,28.591097,76.992696,Mowgli Food Point,1,"Goylamor, Munirka Kunj, Najafgarh, New Delhi","Goylamor, Deenpur, Munirka Kunj, Najafgarh, New Delhi, Delhi 110043, India",0,0,10.336654646996477,10.813525794714124,0.1802828577313878,0.23241470090177987,0.8421052631578949
276,9.2,28.5905728,76.9932785,zama's shawarma,0,Deendarpur goyla more najafgarh,"Deendarpur goyla more najafgarh, Deenpur, Dinpur Lal Dora Extn, Munirka Kunj, Najafgarh, Delhi, 110043, India",0,0,10.417663455593976,10.804970691933706,0.18168070481804385,0.23222767715015571,0.7894736842105259
277,8.6,28.6063261,76.9862668999999,Dominos Pizza,0,"Krishna model school wali gali, Old Roshanpura Extension, Block E, Todarmal Colony, Najafgarh","Krishna model school wali gali, Old Roshanpura Extension, Block E, Todarmal Colony, Najafgarh, Delhi, 110043, India",0,0,8.7722376324285,11.715893763367397,0.15328806785619767,0.2521414355973938,0.631578947368421
278,8.8,28.6064447,76.9864529,MB THE FOOD COURT,0,"Najafgarh - Bajghera Road, Old Roshanpura Extension, Block E, Todarmal Colony, Najafgarh, Delhi","Najafgarh - Bajghera Rd, Old Roshanpura Extension, Block E, Todarmal Colony, Najafgarh, Delhi, 110043, India",0,0,8.77780149641576,11.737628757552804,0.1533840750830634,0.25261658595600656,0.6842105263157896
279,9.0,28.6064971,76.9863687999999,Chowringhee,0,"Main Chhawala Road Opposite Honda Showroom, Old Roshanpura, Najafgarh","Main Chhawala Road Opposite Honda Showroom, Old Roshanpura Extension, Old Roshanpura, New Roshanpura, Najafgarh, Delhi, 110043, India",0,0,8.767760050324041,11.736872177174595,0.15321080496086145,0.25260004629489785,0.7368421052631577
280,8.2,28.6065051,76.9863718,Momozone Najafgarh,1,"Old Roshanpura Extension, Block E, New Roshanpura, Najafgarh, Delhi","Old Roshanpura Extension, Block E, New Roshanpura, Najafgarh, Delhi, 110043, India",0,0,8.767417723521435,11.737743519101013,0.15320489794245207,0.25261909476692784,0.5263157894736838
281,8.2,28.6070805,76.9856449,Green Chick Chop Najafgarh,0,"RZ, Old Roshanpura Extension, Pocket 4, New Roshanpura, Najafgarh, Delhi","RZ, Old Roshanpura Extension, Pocket 4, New Roshanpura, Najafgarh, Delhi, 110043, India",0,0,8.671932447487524,11.741684054173948,0.15155725224523253,0.25270523910343234,0.5263157894736838
282,8.2,28.6080083,76.9878499999999,Pizza Hut,1,"Plot No 25, Khasra No 503, Gr Flr Block B, Najafgarh, Old Roshanpura Extension, New Delhi","Plot No 25, Khasra No 503, Gr Flr Block B, Najafgarh, Old Roshanpura Extension, Block E, New Roshanpura, Najafgarh, New Delhi, Delhi 110045, India",2,0,8.771840504426462,11.958443170599333,0.15328121521596894,0.25744382660999116,0.5263157894736838
283,9.0,28.6175938,77.0120422,New York Slice,1,"Ranaji Enclave, Masudabad, Najafgarh, Delhi","Ranaji Enclave, Masudabad, Najafgarh, Delhi, 110043, India",0,0,9.910007708406754,14.285645060372273,0.17292085364240564,0.30831896386823965,0.7368421052631577
284,9.0,28.6062119,77.0060692999999,Apni Rasoi,0,"110043, Block X, New Roshanpura, Najafgarh, Delhi","110043, Block X, New Roshanpura, Najafgarh, Delhi, 110043, India",0,0,10.268952597492735,12.93986324424295,0.1791146253589101,0.2788987253766344,0.7368421052631577
285,10.0,28.617596,77.011904,The Food Villa,1,"Metro Station, Najafgarh Road, Arjun Park, Delhi","Metro Station, Najafgarh Rd, Ranaji Enclave, Arjun Park, Najafgarh, Delhi, 110043, India",0,0,9.8994632095327,14.277223610538478,0.17273890309546475,0.3081348619138322,0.9999999999999998
286,8.6,28.6176294,77.0120915,New Pizza Slice,0,"Arjun Park Bus Stand, Opposite Metro Pillar No 58, Ranaji Enclave, Masudabad, Najafgarh, Delhi","Arjun Park Bus Stand, Opposite Metro Pillar No 58, Ranaji Enclave, Masudabad, Najafgarh, Delhi, 110043, India",0,0,9.91118665441575,14.29176171694469,0.1729411969392956,0.308452680562116,0.631578947368421
287,9.0,28.619874,77.01194,Chinese Adda,0,"Som Bazar Road, Iswar Colony, Arjun Park, Nangli Sakrawati, New Delhi","Som Bazar Rd, Iswar Colony, Arjun Park, Nangli Sakrawati, New Delhi, Delhi 110043, India",0,0,9.740479813374122,14.474334111411839,0.16999556590788623,0.3124439095435386,0.7368421052631577
288,9.8,28.6262946,77.0183352999999,Sunder Fast Food,0,"Prem Vihar Colony, Ghasipura, Nangli Vihar, Delhi","Prem Vihar Colony, Ghasipura, Nangli Vihar, Delhi, 110043, India",0,0,9.765487079269944,15.421968675949568,0.17042707865795506,0.33316022072968215,0.9473684210526316
289,7.4,28.622055,77.031407,Shri Sai Punjabi Rasoi,1,"C-25 Near Jain Road, Gali No. 4, Dwarka Mor, Bhagwati Garden, Uttam Nagar","C-25 Near Jain Road, Gali No. 4, Dwarka Mor, Uttam Nagar, Bhagwati Garden, Uttam Nagar, Delhi, 110059, India",0,0,11.048960824917389,15.873636492418246,0.1925740533785311,0.3430341651686923,0.3157894736842106
290,7.6,28.6318137,77.0319355,Chinese Junction,0,"Shop No-6, Q-Block, Budh Bazar Road, Mohan Garden, Razapur Khurd, New Delhi","Shop No-6, Q-Block, Budh Bazar Rd, Block P, Mohan Garden, Razapur Khurd, New Delhi, Delhi 110066, India",1,0,10.396029067029724,16.741272827867288,0.1813073927356951,0.3620016289930365,0.36842105263157876
291,7.4,28.6350186,77.032084,Amrit Sagar Sweets & Snacks.,0,"S-9, Budh Bazar Road, Mohan Garden, Block R, Mohan Garden, Razapur Khurd, Delhi","S-9, Budh Bazar Rd, Mohan Garden, Block R, Mohan Garden, Razapur Khurd, Delhi, 110059, India",1,0,10.179730678652318,17.024655889246365,0.17757505699003534,0.3681966876201717,0.3157894736842106
292,8.4,28.635613,77.0321776999999,"Chinese Hut, Fast Food & Kolkata kathi Rolls",0,"Q134, Budh Bazar Road, Block R, Mohan Garden, Razapur Khurd, Delhi","Q134, Budh Bazar Rd, Block R, Mohan Garden, Razapur Khurd, Delhi, 110059, India",0,0,10.144588251609424,17.08133498194076,0.17696865701810133,0.3694357535702177,0.5789473684210524
293,8.4,28.6351986,77.0325507,Baghel Sweet Corner,0,"M-22 sainik enclave sector-3 mohan garden gandhi chowk new delhi 110059, Budh Bazar Road, Block RK, Mohan Garden, Razapur Khurd, New Delhi","M-22 sainik enclave sector-3 mohan garden gandhi chowk new delhi 110059, Budh Bazar Rd, Block RK, Mohan Garden, Razapur Khurd, New Delhi, Delhi 110059, India",0,0,10.202034195895976,17.069123758182748,0.1779599152189242,0.3691688030802279,0.5789473684210524
294,7.4,28.6191495,77.0336042,34 Chowringhee Lane Dwarka Mor,1,"Shop No.-2, Plot No 57, Sevak Park, Najafgarh Road, Metro Pillar -776, Dwarka Mor, Nawada, New Delhi","Shop No.-2, Plot No 57, Sevak Park, Najafgarh Road, Metro Pillar -776, Dwarka Mor, Block C, Sewak Park, Nawada, New Delhi, Delhi 110059, India",0,0,11.420365308288337,15.761994248482381,0.1989828215611445,0.3405935455950247,0.3157894736842106
295,9.4,28.6256405,77.0313046,Fuzion food,0,"Shop no 3, Plot, no 75, Jain Road, Laxmi Vihar, New Delhi","Shop no 3, Plot, no 75, Jain Rd, Block H, Laxmi Vihar, Nawada, New Delhi, Delhi 110059, India",0,0,10.786760963983538,16.173944625867293,0.18804966500554474,0.3495992240817715,0.8421052631578949
296,9.0,28.633147,77.033473,Mount Everest Chinese Fast Food,0,"B-8, Mohan Garden, Vipin Garden Extension, Uttam Nagar","B-8, Mohan Garden, Vipin Garden Extension, Mohan Garden, Uttam Nagar, Delhi, 110059, India",0,0,10.41696362712949,16.951091824950954,0.18166862893151772,0.366588498023579,0.7368421052631577
297,9.0,28.6367589,77.0322501999999,Momos 59,0,"Bhud bazzar road, near gandhi chowk, Mohan Garden, Uttam Nagar, New Delhi","Bhud bazzar road, near gandhi chowk, Block R, Mohan Garden, Uttam Nagar, New Delhi, Delhi 110059, India",0,0,10.068712703585659,17.18386646039672,0.1756593868832888,0.37167720200778626,0.7368421052631577
298,9.6,28.634762,77.0335159999999,Tasty Place,0,"S 226 Duharia Niwas, Mohan Garden, Block R, Mohan Garden, Razapur Khurd","S 226 Duharia Niwas, Mohan Garden, Block R, Mohan Garden, Razapur Khurd, Delhi, 110059, India",0,0,10.305574789058735,17.09190921633301,0.17974655940008144,0.3696669177113568,0.894736842105263
299,9.0,28.6243499,77.0312304,Scoop zone,0,"18A, Jain Road, Dwarka Mor, Laxmi Vihar, Delhi","18A, Jain Rd, Dwarka Mor, Block D, Laxmi Vihar, Nawada, Delhi, 110059, India",0,0,10.87279043720455,16.058930257846203,0.18953414614519526,0.3470848862473714,0.7368421052631577
300,9.6,28.6243499,77.0312304,Scoop zone,0,"18A, Jain Road, Dwarka Mor, Laxmi Vihar, Delhi","18A, Jain Rd, Dwarka Mor, Block D, Laxmi Vihar, Nawada, Delhi, 110059, India",0,0,10.87279043720455,16.058930257846203,0.18953414614519526,0.3470848862473714,0.894736842105263
301,9.4,28.636358,77.036441,Chefs and Cooks Caterers,1,"35/36, R-, A-2, 1A/3, Mohan Garden, Uttam Nagar, New Delhi","35/36, R-, A-2, 1A/3, S Block, Mohan Garden, Uttam Nagar, New Delhi, Delhi 110059, India",1,0,10.412153646456057,17.410624599270612,0.1815856303343573,0.3766343789034959,0.8421052631578949
302,7.6,28.6480618,77.0428687999999,Bikaner Sweets,1,"Shop 7, Tyagi Market, Gali Number 6, Vikas Nagar, Gupta Enclave, Uttam Nagar, Delhi","Shop 7, Tyagi Market, Gali Number 6, Vikas Nagar, Gupta Enclave, Uttam Nagar, Delhi, 110059, India",0,0,10.064675221532823,18.81206808301407,0.1755897181321654,0.40727144133819626,0.36842105263157876
303,7.2,28.6377997,77.039794,Aggarwal Sweets & Bakery,0,"Main Balaji Chowk, Mohan Garden, Uttam Nagar","Main Balaji Chowk, Mohan Garden, Uttam Nagar, Delhi, 110059, India",1,0,10.561851388389185,17.742799075017295,0.18416873896245617,0.38389607034572315,0.26315789473684204
304,8.2,28.6406301,77.0498151,Ramada Hotel,0,"Shiva Enclave, Hastsal, Delhi","Shiva Enclave, Hastsal, Delhi, 110059, India",0,0,11.1141678657559,18.60910004336202,0.19369923314161663,0.4028343416083816,0.5263157894736838
305,8.2,28.6471882,77.0433690999999,Aggarwal Sweet Corner,0,"Main Ranhola Rd, AGGARWAL CHOWK R\1 shop no 1, Vikas Nagar, Delhi","Main Ranhola Rd, AGGARWAL CHOWK R\1 shop no 1, Vikas Nagar, Gupta Enclave, Hastsal, Delhi, 110066, India",0,0,10.164271291571536,18.768508428533558,0.17730829761452435,0.4063191804233368,0.5263157894736838
306,9.8,28.6435152,77.0459625,BAJRANGI FAMILY RESTAURANT,0,"Rz-A, Main Ranholla Road Near-Pradhan Chowk, Vikas Nagar, New Delhi","Rz-A, Main Ranholla Road Near-Pradhan Chowk, Vikas Vihar, Yadav Enclave, Vikas Nagar, New Delhi, Delhi 110059, India",0,0,10.619849171190499,18.615886906344286,0.1851695194099769,0.40298270973548445,0.9473684210526316
307,9.6,28.6648237,77.060958,Shree Balaji Sudh Bhojnalaya,0,"50 Feet Road, Block G, Nikhil Vihar, Nangloi, Delhi","50 Feet Rd, Block G, Nikhil Vihar, Nangloi, Delhi, 110041, India",0,0,10.234742062464258,21.372361957851968,0.17852430564491326,0.4632422201847792,0.894736842105263
308,9.8,28.665468,77.0626520999999,Aakash fast food point,0,"50 Feet Road, Block G, Nikhil Vihar, Nangloi, Delhi","50 Feet Rd, Block G, Nikhil Vihar, Nangloi, Delhi, 110041, India",0,0,10.316339986713537,21.532973627580937,0.17993231821371625,0.46675336409483115,0.9473684210526316
309,9.0,28.667072,77.069937,Om Sai Pizza Point,0,"RZE-244-A, Near Near New Police Station, Nihal Vihar, New Delhi","RZE-244-A, Near Near New Police Station, Nihal Vihar, Nangloi, New Delhi, Delhi 110041, India",0,0,10.749997681837689,22.12384712886666,0.18741529637658708,0.47967049458199573,0.7368421052631577
310,9.0,28.6689519999999,77.073482,Vaishno Panjabi Rasoi,0,"RZC - 150, Nihal Vihar, 50 Feet Road, Nangloi, Delhi","RZC - 150, Nihal Vihar, 50 Feet Rd, Nihal Vihar, Vandana Vihar, Nangloi, Delhi, 110041, India",0,0,10.883007960388186,22.50540601814357,0.1897104545647654,0.4880117824390461,0.7368421052631577
311,7.6,28.6803472999999,77.0846617,Raj Bhog,1,"Near Metro Pillar 311, Rohtak Road, Inder Enclave, Paschim Vihar, Delhi","Rohtak Rd, Near Metro Pillar 311, Inder Enclave, Paschim Vihar, Delhi, 110087, India",0,0,10.914595888135809,24.17616999714225,0.19025551989210412,0.5245364806748267,0.36842105263157876
312,8.0,28.6704331,77.0841523999999,Green Chick Chop,1,"M -136 Shop 2, Guru Harkishan Nagar, Paschim Vihar, Delhi","M -136 Shop 2, Guru Harkishan Nagar, Paschim Vihar, Guru Harkishan Nagar, Paschim Vihar, Delhi, 110087, India",0,0,11.579796679421365,23.296591129788602,0.20173388877862683,0.5053079402535067,0.4736842105263157
313,9.4,28.667595,77.082543,Hajjam The Groomers,1,"Shop No. 40. GH 13, DDA Market, Near Ambica Vihar, Kashi Ram Shah Marg, GH 13, Paschim Vihar, Delhi","Shop No. 40. GH 13, DDA Market, Near Ambica Vihar, Kashi Ram Shah Marg, Block GH 13, GH 13, Ambica Vihar, Paschim Vihar, Delhi, 110087, India",0,1,11.660242492231685,22.953651420968647,0.2031220210943273,0.4978109092334686,0.8421052631578949
314,9.4,28.677585,77.07701,Aggarwal Sweets Corner,1,"Near Mother Dairy, B-670, Jawala Puri, Camp No 4, New Delhi","Near Mother Dairy, B-670, Jawala Puri, Camp No 4, Jwalapuri, Paschim Vihar, New Delhi, Delhi 110087, India",0,0,10.535580785924077,23.46344104917243,0.1837154267146115,0.5089554590130451,0.8421052631578949
315,9.0,28.680123,77.0692083,The Delightful Pizza,0,"3/10, Green View Shiv Market, Bhooton Wali Gali, Ashok Mohalla, Nangloi, Delhi","3/10, Green View Shiv Market, Bhooton Wali Gali, Ashok Mohalla, Nangloi Jat, Nangloi, Delhi, 110041, India",2,0,9.769225908932281,23.194683010048657,0.1704915940142661,0.5030801191081716,0.7368421052631577
316,9.2,28.6801561,77.0692028,Dheeraj Cheez Burger,0,"15, Bhooton Wali Gali, Nangloi Jat, Nangloi, Delhi","15, Bhooton Wali Gali, Nangloi Jat, Nangloi, Delhi, 110041, India",0,0,9.76646419162027,23.197171555890513,0.17044393921516962,0.5031345213978201,0.7894736842105259
317,7.6,28.683182,77.069108,Sai Durga Dosa & Pizza Corner,0,"410 phase, Y-409, 1, Nangloi Sultanpuri Road, Camp No 1, Block X, JJ Colony No 3, Nangloi","Y-409, 410 phase, 1, Nangloi Sultanpuri Rd, Camp No 1, Block X, JJ Colony No 3, Nangloi, Delhi, 110041, India",1,0,9.544659221377048,23.450074826081185,0.16661658467400073,0.5086632589949117,0.36842105263157876
318,10.0,28.6780622,77.0640456999999,The Pizza Family,1,"H no.126/114, Plot No25 Talab Wali Gali, Nangloi - Najafgarh Road, Nangloi, Delhi","H no.126/114, Plot No25 Talab Wali Gali, Nangloi - Najafgarh Rd, Block G, Nangloi Extension, Nangloi, Delhi, 110041, India",0,0,9.527477024921048,22.696939592790674,0.1663200973700372,0.4921989124609648,0.9999999999999998
319,8.6,28.677825,77.06392,The Pastry Shop,0,"Shop No - 10 , Main Najafgarh Road , Opp. Water Tank, Nangloi, Delhi","Shop No - 10 , Main Najafgarh Road , Opp. Water Tank, Nangloi, Najafgarh, Block 2C, Nangloi Extension, Nangloi, Delhi, 110041, India",1,0,9.53485990125375,22.668823905376332,0.16644749255522115,0.4915842732830746,0.631578947368421
320,8.6,28.6788681,77.0842986,Shamiana Kathi Rolls,0,"Inder Enclave, Paschim Vihar, Delhi","Inder Enclave, Paschim Vihar, Delhi, 110087, India",0,0,10.9922639034096,24.02705575286985,0.19159571993647534,0.5212766828558852,0.631578947368421
321,10.0,28.6925257,77.0884449,"Madhav(catering equipments,chaat counter,Display Catering Counters,Display counter)",1,"S -1194 MANGOLPURI NEAR-BIKANER SWEETS, Delhi","S -1194 MANGOLPURI NEAR-BIKANER SWEETS, Laxmi Nagar, Block M, Mangolpuri, Delhi, 110083, India",0,0,10.33483696948618,25.453275620391754,0.18025149280631067,0.5524553836980788,0.9999999999999998
322,8.0,28.6791896,77.0883764,maa tiffin lunch and dinner,1,"3, AB Road, Block RR, Mianwali Nagar, Paschim Vihar, Delhi","3, AB Rd, Block RR, Mianwali Nagar, Paschim Vihar, Delhi, 110087, India",0,0,11.275888635709805,24.30848546437233,0.19648980506886277,0.5274290391530154,0.4736842105263157
323,8.4,28.6979981,77.1051474,Kushal Bhojnalaya,0,"CSC-4, Shop No.14, DDA Market, Sector 2, Rohini,Pocket 4, New Delhi","CSC-4, Shop No.14, DDA Market, Sector 2, Rohini,Pocket 4, Pocket 4, Sector 2, Mangolpuri, New Delhi, Delhi 110085, India",0,0,11.201661822773842,26.961251532981027,0.19520898467401127,0.5854213596506839,0.5789473684210524
324,9.2,28.6958633,77.0935028999999,S&N Special Chinese Food,0,"Police Station Road, Block d-690, Mangolpuri, Delhi","Police Station Rd, Block d-690, Mangolpuri, Delhi, 110083, India",0,0,10.478123685611651,26.053653361069497,0.18272397601104062,0.5655802870844185,0.7894736842105259
325,9.0,28.696472,77.0932282,Yo yo Chinese fast food,0,"Mangol puri 925, Block D, Delhi","Mangol puri 925, Block D, Mangolpuri, Delhi, 110083, India",0,0,10.414297737191172,26.08860732392872,0.18162262768118284,0.5663444183211616,0.7368421052631577
326,8.0,28.6966703,77.0909109,Bhai Bansi Kachori,1,"H 4, Police Station Road, Mangolpuri, Delhi","H 4, Police Station Rd, Block I, Mangolpur Khurd, Mangolpuri, Delhi, 110083, India",0,0,10.22610129968247,25.9612836683193,0.17837520500647502,0.5635609862159292,0.4736842105263157
327,8.6,28.69267,77.0954349999999,Fifty Fifty Chicken Corner,0,"U.C. Mini Market, Shop No. 1, F Block, Mangolpuri, Mangolpuri","U.C. Mini Market, Shop No. 1, F Block, Mangolpuri, Delhi 110083, India",0,0,10.84986099921086,25.900859325514,0.18913848734397287,0.5622400450687651,0.631578947368421
328,8.6,28.6960759,77.0980146999999,Operator Mohar Singh Kashyap Company Name Ritu Kashyap Enterprise,0,"718,G-Block, 110083, Mangolpuri, New Delhi","718,G-Block, 110083, Block G, Mangolpuri, New Delhi, Delhi 110083, India",0,0,10.80206918619027,26.352758055222644,0.18831381595633684,0.5721190375196515,0.631578947368421
329,8.8,28.693,77.0975589999999,Chakwal Dhaba,0,"Shop No:20, C.S.E. Market, Mangol Pur Kalan, Mangolpuri, Delhi","Shop No:20, C.S.E. Market, Mangol Pur Kalan, Mangolpuri, Delhi, 110083, India",0,0,10.986052770759578,26.06133343170311,0.19148854376847604,0.5657481816918246,0.6842105263157896
330,9.4,28.6985478,77.0965817,avantika egg store,0,"A-168, Kanjhawala Rd MIG, Pocket 6, Kanjhawala Road, MIG, Pocket 6, Sector 2, Rohini, Delhi","A-168, Kanjhawala Rd MIG, Pocket 6, Kanjhawala Rd, MIG, Pocket 6, Sector 2, Rohini, Delhi, 110085, India",0,0,10.519020643748044,26.474934548915375,0.18342967326512685,0.5747899471273074,0.8421052631578949
331,7.8,28.7091936,77.112093,Garg Sweets,1,"650, Sector 6/7 Dividing Road, Pocket 1, Sector 6A, Rohini, Delhi","650, Sector 6/7 Dividing Rd, Pocket 1, Sector 6A, Rohini, Delhi, 110085, India",0,0,10.929298021004453,28.35110126840986,0.1905092124713911,0.6158049702729582,0.4210526315789471
332,7.8,28.7010008,77.1168665999999,McDonald's,1,"16, Manglam Palace, DDA Central Market, Sector 3, Rohini, Delhi","16, Manglam Palace, DDA Central Market, Mangalam Place, Sector 3, Rohini, Delhi, 110085, India",1,0,11.869221132345217,27.947700388515784,0.20672805096087518,0.6069861930001743,0.4210526315789471
333,8.2,28.699774,77.115459,Pasta Hut,1,"G- 80, Near M2K, Aggarwal City Plaza, Sector 3, Rohini","G- 80, Near M2K, Aggarwal City Plaza, Sector 3, Mangalam Place, Sector 3, Rohini, Delhi 110085, India",0,0,11.850492417633419,27.755152716502373,0.20640487771897778,0.6027768937187122,0.5263157894736838
